idelem,tipo_elem,identif,nombre,north, east, zone, longitude, latitude
1044,PUNTOS DE MEDIDA M-30,03FT08PM01,03FT08PM01,44747344416665.00,438963314634858.00,31,-1.5468350360068,3.5338599838279
3600,PUNTOS DE MEDIDA M-30,PM30901,PM30901,447326824999887.00,443729047369186.00,31,1.1631719227218,3.8604929560231
3705,PUNTOS DE MEDIDA M-30,PM41451,PM41451,447157421949934.00,439858261097366.00,31,3.8787326566534,3.8199650959335
6823,PUNTOS DE MEDIDA M-30,PM41453,PM41453,447089503379762.00,439188095183064.00,31,-1.0011655382198,-2.3189983914306
7033,PUNTOS DE MEDIDA URBANOS,1015,P∫ Castellana S-N - Pl. Colon-Hermosilla,447550242536523.00,441569555897254.00,31,-3.8400592270320,-7.8169280744559
3864,PUNTOS DE MEDIDA URBANOS,2009,Dr. Esquedo N-S - Samaria-Av. Nazaret (De Frente),447397840115568.00,443278122806687.00,31,-4.6493758686761,-1.1232511537970
4237,PUNTOS DE MEDIDA URBANOS,14037,Moratines O-E - Martin Vargas-Embajadores,447299494936248.00,440515953264391.00,31,-5.1191829518150,-1.3452010226795
5597,PUNTOS DE MEDIDA URBANOS,61090,Alfonso XIII O-E - Paraguay-Ricardo Calvo,44792554800699.00,443241345233115.00,31,3.8479135418834,8.7039164347389
5586,PUNTOS DE MEDIDA URBANOS,61120,Acceso M-30 N-E(Superficie) - M-30 Norte-Pl.JosÈ M™Soler,447925534573733.00,443529430869472.00,31,-2.7550745847945,-6.0846885381441
5967,PUNTOS DE MEDIDA URBANOS,45021,Pl. Alsacia - Malmoe-Hermanos GarcÌa Noblejas,447443559451684.00,447211606213573.00,31,4.9739262796815,1.4512682951563
5993,PUNTOS DE MEDIDA URBANOS,45049,Pl. Alsacia - Fuente Carrantona-Malmoe,447445956198714.00,447195526932339.00,31,1.9937509187232,4.6205655010266
6371,PUNTOS DE MEDIDA URBANOS,59017,C/. Salvador de Madariaga - Esteban Mora-Verdaguer y GarcÌa,44768876611661.00,444384173429622.00,31,-5.5879932032525,-1.2199007205258
6375,PUNTOS DE MEDIDA URBANOS,59021,Av. Badajoz - AristÛteles-Torrelaguna,447734786053692.00,444747109372472.00,31,4.8519933638673,-1.1121764173425
6398,PUNTOS DE MEDIDA URBANOS,64011,Av. Canillejas a Vic·lvaro - Pobladura del Valle-Julia Garcia Boutan,447564997776022.00,448273625378504.00,31,-6.1069828751293,1.7665861691865
6419,PUNTOS DE MEDIDA URBANOS,64405,Av. Canillejas a Vic·lvaro a Suecia - Aquitania-Av. Guadalajara,447491965496518.00,44825245607866.00,31,-8.7294844196336,1.9349310899519
3810,PUNTOS DE MEDIDA URBANOS,65027,AV. Daroca 106 O-E - Fco. Largo Caballeroo-Fuente Carranton,447438688330761.00,446846191685541.00,31,1.4334437108800,-4.7577398792541
5315,PUNTOS DE MEDIDA URBANOS,86012,RAFAEL FINAT N-S(GRAL.SALIQUET-AVIACION),446985410050399.00,434477249234805.00,31,1.3977250397652,3.1649638461616
6511,PUNTOS DE MEDIDA URBANOS,71009,C/. San Romualdo - Albasanz-Alcal·  ,44770721107764.00,44728898841201.00,31,1.8673174581211,4.8199744422395
5061,PUNTOS DE MEDIDA URBANOS,49035,OCA N-S(MATILDE FERNANDEZ-GRAL.RICARDOS),44713114632127.00,438065301302051.00,31,-2.7154700674711,8.2215591232627
5119,PUNTOS DE MEDIDA URBANOS,51020,LAGUNA S-N(MU?OZ GRANDES-N.SRA.FATIMA),447124447118359.00,437123641835444.00,31,-6.2944692910379,1.9256793206697
3771,PUNTOS DE MEDIDA URBANOS,80006,POBLADOS E-O(GUARE?A-PADRE PIQUER),447148107022769.00,435069744034187.00,31,9.2880685166198,-3.0213059914201
5238,PUNTOS DE MEDIDA URBANOS,84003,AV.CARABANCHEL ALTO S-N(M-40-AV.PESETA),44682948381552.00,43609220032378.00,31,1.5583916272125,-4.9706342058600
5265,PUNTOS DE MEDIDA URBANOS,84030,P.SAN JOSE S-N(PARQUE GARAJONAI-JACOBEO),446870070981403.00,435490121810796.00,31,3.1766232604230,6.7584080348179
5280,PUNTOS DE MEDIDA URBANOS,85006,GRAL RICARDOS  O-E,447223557350915.00,439190235530835.00,31,-1.8437049668790,-4.0442373677872
5385,PUNTOS DE MEDIDA URBANOS,94001,R. PINTO SO-NE(LAG DALGA-LAG MARQUESADO),446510903812031.00,439511427869559.00,31,-8.1005698530242,-1.7397442079716
5015,PUNTOS DE MEDIDA URBANOS,95034,CARAMUEL S-N(AV.CAPRICHOS-PABLO SARASATE,447322557066985.00,438180588428318.00,31,1.2203618718770,-2.6815590370872
5107,PUNTOS DE MEDIDA URBANOS,96053,PINZON  N-S (TUCAN-OCA),447142854500442.00,437291717112315.00,31,-3.7347312199619,-8.0293593540904
5162,PUNTOS DE MEDIDA URBANOS,98031,CARAB-ARAVACA E-O(SEB.ALVARO-VILLAVICI.),447222477060489.00,434447220509014.00,31,-4.3423495856458,-9.5897025714756
9933,PUNTOS DE MEDIDA URBANOS,29019,RAMIRO MAEZTU E-O(DIRECCISN NORTE)(MORERAS -AV.GREGORIO AMO),447794008522483.00,438701379589277.00,31,3.1402665699566,9.3702843513673
7073,PUNTOS DE MEDIDA URBANOS,30027,MARTMN FIERRO S-N(OBISPO TREJO - JUAN HERRERA),447670897845251.00,438042931327835.00,31,-3.6854484194720,3.3393702038504
4508,PUNTOS DE MEDIDA URBANOS,31015,FRANCOS RODRIGUEZ O-E(PIRINEOS-POLICIA),447910600714473.00,43944008611765.00,31,-1.6893207391134,3.7108460865453
4509,PUNTOS DE MEDIDA URBANOS,31016, FRANCOS RODRIGUEZ E-O(COLEGIO PALOMA-DEHESA  VILLA),447914970730924.00,439348876527186.00,31,-8.6383512410421,-2.8187987273010
5419,PUNTOS DE MEDIDA URBANOS,43006,AV.MONFORTE DE LEMOS O-E(PL.ARTEIJO-GINZO DE LIMIA),448137151698998.00,440277828828504.00,31,5.4679707943992,-1.1928715992582
5420,PUNTOS DE MEDIDA URBANOS,43008,AV.MONFORTE DE LEMOS E-O(FINISTERRE-GINZO DE LIMIA),448144209052731.00,440525619746967.00,31,-1.9789696507818,-4.5102205075226
5418,PUNTOS DE MEDIDA URBANOS,43005,AV.MONFORTE DE LEMOS E-O(PL.ARTEIJO-PL.FONSAGRADA),448135318287203.00,440159363857155.00,31,-6.5133948767001,1.8016671420563
7029,PUNTOS DE MEDIDA URBANOS,1012, P∫ Recoletos  N-S -  (PL. Colon-B·rbara Braganza),447527977323341.00,441510905106017.00,31,3.8754297699496,8.3670055207449
4192,PUNTOS DE MEDIDA URBANOS,2016,Dr. Esquerdo N-S - Angel Ganivet-Av. Mediterraneo,447349463091626.00,443247618984551.00,31,3.9376603457230,1.9451064206920
3934,PUNTOS DE MEDIDA URBANOS,5006,Concha Espina. 39 O-E - Pl. Sagrados Corazone-Serrano,447832589170128.00,442168423651791.00,31,-2.9745996803442,-9.0437577659247
7037,PUNTOS DE MEDIDA URBANOS,8014,Goya. 43 E-O - NuÒez de Balboa-Velazquez,447537818714796.00,442180948919299.00,31,2.6487578773718,6.5776302868709
5082,PUNTOS DE MEDIDA URBANOS,8016,Goya E-O - General PardiÒas-Principe de Vergara,447535305186145.00,442528679838465.00,31,3.9296745599223,2.6074241264706
4016,PUNTOS DE MEDIDA URBANOS,8017,Jose Ortega y Gasset O-E - NuÒez de Balboa-Castello,447594126259645.00,442234239212366.00,31,1.2408944915175,2.8775254787574
4017,PUNTOS DE MEDIDA URBANOS,8018,Jose Ortega y Gasset E-O - NuÒez de Balboa-Velazquez,447594510797604.00,442213130324691.00,31,-9.5471048447936,3.1500543966994
4018,PUNTOS DE MEDIDA URBANOS,9001,Lateral M-30 N-S - Salida Puente Ventas-Pl. Toros,447616121434151.00,444046807276126.00,31,2.4955060169556,5.7068327070503
4043,PUNTOS DE MEDIDA URBANOS,9029,Principe de Vergara S-N - Jorge Juan-Goya,447522083314491.00,442406416065004.00,31,-5.4561091984392,1.5496821280876
7041,PUNTOS DE MEDIDA URBANOS,13025,P∫ del Prado N-S - Zorrilla-Plaza de las Cortes,447451022480966.00,441211322592818.00,31,-3.8344927384492,1.3661237932642
4400,PUNTOS DE MEDIDA URBANOS,18009,Carranza O-E - San Bernardo -Fuencarral,44758589526259.00,440343386653338.00,31,-3.7823210159352,-6.2602859137580
4387,PUNTOS DE MEDIDA URBANOS,18010,Conde Duque. 13 S-N - Sta Cruz de Marcenado-Alberto Aguilera,447582511094702.00,439936781169851.00,31,-4.9130445558234,1.3993352041960
4388,PUNTOS DE MEDIDA URBANOS,18011,Alberto Aguilera E-O - Vallehermoso-Galileo,447593836932317.00,439895524161599.00,31,-1.5070503549312,-4.8802944470216
4385,PUNTOS DE MEDIDA URBANOS,18007,Alberto Aguilera O-E - Princesa-Serrano Jover,447599667213234.00,439415464454646.00,31,-7.1828182601102,1.9622815347602
4386,PUNTOS DE MEDIDA URBANOS,18008, Alberto Aguilera O-E - Conde Duque-Acuerdo,447590413050442.00,44006937734256.00,31,4.6741072744387,1.0905636941948
4680,PUNTOS DE MEDIDA URBANOS,35047,Puente de la Paz E-O - Av.Donostiarra-Av.Brasilia,447711057855599.00,444137815184885.00,31,-8.9978558306174,-2.0129155854984
4687,PUNTOS DE MEDIDA URBANOS,35057,Poeta Claudio Rodriguez S-N  - Clara del Rey-CorazÛn de Maria,4477106123215.00,443163758814779.00,31,-9.2926413240283,3.0657366170478
7077,PUNTOS DE MEDIDA URBANOS,35058,Camilo JosÈ Cela. 4  S-N - Azcona-Eraso,447656417281913.00,443521904850891.00,31,-1.8069690744561,5.8275859214651
4685,PUNTOS DE MEDIDA URBANOS,35054, Av.Toreros O-N - Colomer-Francisco Altimiras(Giro),447629282172075.00,443809002206901.00,31,3.0023876320319,9.1719010257869
4686,PUNTOS DE MEDIDA URBANOS,35056, Mejico E-O - Eduardo Vicente-Cartagena,447681206003334.00,443107368425662.00,31,-4.2314598391012,9.1630418122106
9991,PUNTOS DE MEDIDA URBANOS,62001,Capitan  Haya. 55  - Rosario Pino -Estebanez Calderon,447955190241619.00,441469320826229.00,31,-3.5412258680070,7.6402185795562
5978,PUNTOS DE MEDIDA URBANOS,45033,C/. Hermanos GarcÌa Noblejas - Castillo de ArÈvalo-Castropol,447568934568106.00,446590422766994.00,31,2.8192786392947,8.7611321546061
5979,PUNTOS DE MEDIDA URBANOS,45034,C/. Hermanos GarcÌa Noblejas - Castillo de UclÈs-Castillo de ArÈvalo,447551220215691.00,446688817801725.00,31,7.1368819190907,2.2449346956358
6071,PUNTOS DE MEDIDA URBANOS,47010,C/. Arturo Soria - Briviesca-Caleruega,448151537650209.00,443577391328265.00,31,8.4383277316255,2.7585660522939
6148,PUNTOS DE MEDIDA URBANOS,53018,C/. Emilio Ferrari - Vital Aza-Esteban Collantes,447607118760315.00,445695755926504.00,31,-4.8475540070278,-1.0985893011307
6265,PUNTOS DE MEDIDA URBANOS,55054,Av. de los Andes - Mahonia-Mitra,447885821827165.00,447660980346048.00,31,-3.1227426338029,-7.1705612903199
6309,PUNTOS DE MEDIDA URBANOS,56029,C/. Mar Adri·tico - Chiquinquira-Ayacucho,44804363219074.00,445922225843256.00,31,1.2705745468172,-4.2306011078193
6374,PUNTOS DE MEDIDA URBANOS,59020,Av. Badajoz - MartÌnez Villergas-Torrelaguna,447724635409388.00,444635587149862.00,31,2.3114470132702,-5.1256013516083
3786,PUNTOS DE MEDIDA URBANOS,59022,Av. Badajoz - Torrelaguna-MartÌnez Villergas,447727126256347.00,444655616920307.00,31,-3.9915829212089,1.6508252497812
6376,PUNTOS DE MEDIDA URBANOS,59023,Av. Badajoz - MartÌnez Villergas-Salvador de Madariaga,447713566773448.00,444490094824713.00,31,-8.6466994003734,2.8376087293972
6377,PUNTOS DE MEDIDA URBANOS,59024,C/. Salvador de Madariaga - Av. Badajoz-Verdaguer y GarcÌa,447705546998757.00,444383674107609.00,31,2.2687412106746,7.1687195627258
6406,PUNTOS DE MEDIDA URBANOS,64021,MarÌa Sevilla Odiago - Niza-Av. Canillejas a Vic·lvaro,447618117768675.00,44829865340652.00,31,-4.3960465888800,-9.6880578894911
6468,PUNTOS DE MEDIDA URBANOS,66002,Av. Arcentales - Av. Arcentales-Pl. Grecia,447638948169045.00,448760641219247.00,31,-2.2815566298366,-7.3144075002416
3698,PUNTOS DE MEDIDA URBANOS,71021,C/. Miguel Yuste - Gta. Arcentales-Emilio MuÒÛz,447629054740173.00,447353187367056.00,31,1.6155228944035,-3.6174166433903
5207,PUNTOS DE MEDIDA URBANOS,82007,C/. Monte de Barbanza - Travesia Gavia Seca-Real Arganda,447018214269754.00,447556390508885.00,31,1.8625647561689,-6.0700819013385
5222,PUNTOS DE MEDIDA URBANOS,82403,Cno. Pozo Tio Raimundo - Cno. Pozo Tio Raimundo E-O(Antes Gr. 1),446965242860925.00,444846290216083.00,31,-5.1522513057229,-1.2987254996130
4787,PUNTOS DE MEDIDA URBANOS,25021,ANTONIO LOPEZ S-N(S.ZACARIAS-MATI.GAYO),447148203593237.00,440578330046561.00,31,-4.0669774350415,5.9114120823541
5120,PUNTOS DE MEDIDA URBANOS,51021,MU—OZ GRANDES O-E(B.TORRIJOS-CASTROJERIZ,447108875582129.00,437195552030183.00,31,1.3972368301303,-4.5123344316212
4507,PUNTOS DE MEDIDA URBANOS,31014,FRANCOS RODRIGUEZ O-E(POLICIA-STO ANGEL DE LA GUARDA),447906551613234.00,439531480709062.00,31,5.6029648162707,-1.6028545220315
7114,PUNTOS DE MEDIDA URBANOS,31018,Lope de Haro E-O (Giro Izqda)(Berruguete-Francos Rodriguez),447889438746231.00,440394744325815.00,31,8.6988770173170,-2.3405612679277
4532,PUNTOS DE MEDIDA URBANOS,31054,VILLAAMIL N-S(CAMINO CHORRILLO-SAN RESTITUTO),447984053879873.00,439901731309707.00,31,3.8030756499192,2.2181478947603
4549,PUNTOS DE MEDIDA URBANOS,32007,AV. BETANZOS S-N(RIBADAVIA-CHANTADA),44806494276322.00,439737552933366.00,31,-1.0145299273040,2.6857997305488
4550,PUNTOS DE MEDIDA URBANOS,32008,CHANTADA E-O(RIBADAVIA-AV. BETANZOS),448070456809012.00,439822919313205.00,31,-3.7960186419981,-2.1110839622294
4555,PUNTOS DE MEDIDA URBANOS,32013,AV. BETANZOS N-S(AV. MONFORTE DE LEMOS-LA BAQEZA),448121061126942.00,439750249445418.00,31,6.9063883962417,1.8963593341830
4505,PUNTOS DE MEDIDA URBANOS,31012,FRANCOS RODRIGUEZ O-E (DR.FEDERICO RUBIO-PABLO IGLESIAS),447900598776284.00,439683570327401.00,31,2.6025859012967,-5.8812482490536
4060,PUNTOS DE MEDIDA URBANOS,10012,Menendez Pelayo N-S - Sainz de Baranda-Puerta Granada,44740833111569.00,442661750915466.00,31,-3.8831811143842,1.8693754114682
4210,PUNTOS DE MEDIDA URBANOS,14014,Meson de Paredes N-S - Miguel Servet-Ronda Valencia,447328055439027.00,440584032472443.00,31,-3.4397828468093,-7.7461498512024
4211,PUNTOS DE MEDIDA URBANOS,14015, Ronda Valencia O-E - Meson de Paredes-Fray Luis Leon,447321205858999.00,440661317855736.00,31,-1.3622908159139,4.4539096503338
4212,PUNTOS DE MEDIDA URBANOS,14016,Ronda Valencia E-O - Meson de Paredes-Gta. Embajadores,447320632514507.00,440619045580495.00,31,1.4894529317943,-4.8387747464952
4213,PUNTOS DE MEDIDA URBANOS,14017,Embajadores S-N - Sebastian Elcano-Gta. Embajadores,447305060113538.00,440565774038157.00,31,-3.3922960568385,-7.6409264840509
10037,PUNTOS DE MEDIDA URBANOS,14043,P∫ Yeserias O-E - YeserÌas-Naves,447241229903795.00,439988958192788.00,31,-3.9967347949361,-1.1652415133966
3671,PUNTOS DE MEDIDA URBANOS,15003, Alcala E-O - Pl. Independencia-Pl. Cibeles,447479117471125.00,441536245278302.00,31,4.0099927674151,-4.7551102541808
4393,PUNTOS DE MEDIDA URBANOS,18020,San Bernardo N-S - Noviciado-Reyes,447539570761332.00,4400983339286.00,31,-2.2227210612959,-5.5466661165566
4394,PUNTOS DE MEDIDA URBANOS,18021, Noviciado O-E - Norte-San Bernardo,447544213188961.00,440087622452585.00,31,-7.1649700022025,-1.5434066001104
4402,PUNTOS DE MEDIDA URBANOS,18024,Serrano Jover N-S( Lateral Izquierdo) - Alberto Aguilera-Sta Cruz de Marcenado,447595398577444.00,439532070326489.00,31,-8.4336528428775,-2.2692745297896
5558,PUNTOS DE MEDIDA URBANOS,61046,Alfonso XIII E-O - Torpedero Tucum·n-Encinas,447928216671396.00,442877187665367.00,31,9.2368164027898,2.0216834237910
5675,PUNTOS DE MEDIDA URBANOS,62062,General Yag¸e O-E - Capit·n Haya-P∫Castellana,447883194096618.00,4414308470999.00,31,4.0243860900824,5.0036145357834
6451,PUNTOS DE MEDIDA URBANOS,65040,C/. Andaluces - Av. Rafael Alberti-Av. Pablo Neruda,447160715063655.00,445689911538258.00,31,-4.9185707574094,1.1930858771071
6460,PUNTOS DE MEDIDA URBANOS,65053,C/. Laponia - Laponia-Av. Doctor GarcÌa Tapia,447319432859766.00,446843735790816.00,31,1.7189801394891,-5.6296599058393
6461,PUNTOS DE MEDIDA URBANOS,65057,C/. Fuente Carrantona - Av. Doctor GarcÌa Tapia-Mario CabrÈ,447328185217184.00,446467284849674.00,31,8.8384925268877,2.9133617025222
6452,PUNTOS DE MEDIDA URBANOS,65041,Av. Moratalaz  - Camimo Vinateros-Av. Doctor GarcÌa Tapia,447358310118037.00,445593720668356.00,31,3.8215095403409,-8.4600850385702
6458,PUNTOS DE MEDIDA URBANOS,65049,C/. JosÈ Bergamin - JosÈ BergamÌn-Fuente Carrantona,447375137611888.00,446600774409448.00,31,4.1983815879485,4.3984541526335
3833,PUNTOS DE MEDIDA URBANOS,65051,Av. Doctor GarcÌa Tapia - M-40-Rabat,447327877429533.00,447001663631193.00,31,1.2447852423678,-2.7199181649743
6459,PUNTOS DE MEDIDA URBANOS,65052,C/. Rabat - Rabat-Av. Doctor GarcÌa Tapia,447339066355743.00,446879614791448.00,31,4.6189928546419,-8.8425606089461
4398,PUNTOS DE MEDIDA URBANOS,18302, Gta. Ruiz Jimenez E-O(Delante G. 5) -  Gta. Ruiz Jimenez E-O(Delante G. 5),447587666753843.00,440265241308595.00,31,-7.1557280662963,1.5908053907455
5547,PUNTOS DE MEDIDA URBANOS,61035,Principe de Vergara S-N - Concha Espina-Pl.Rep˙blica Ecuador,447843001463825.00,442668841708448.00,31,5.1232796842025,1.3166710447332
5575,PUNTOS DE MEDIDA URBANOS,61064,Alberto Alcocer E-O - VÌctor AndrÈs Belaunde-P∫ de la Habana,447909778758189.00,442384376274246.00,31,-5.9480026980618,-1.2881720797303
4265,PUNTOS DE MEDIDA URBANOS,97045,Gran VÌa San Francisco S-N - San BernabÈ-Cra.San Francisco,447363868191445.00,439578336736723.00,31,3.7395790673782,-8.3869426097101
5788,PUNTOS DE MEDIDA URBANOS,40006,Av. Buenos Aires - T˙nel Av. San Diego-Av. Pablo Neruda,447034793440323.00,444699675307279.00,31,-2.1484038528312,-5.4483501772553
5926,PUNTOS DE MEDIDA URBANOS,44024,C/. Alcal·  - Urquiza-Gutierre de Cetina,447634217519792.00,445308199902893.00,31,-4.1993223549385,9.5318432519058
5930,PUNTOS DE MEDIDA URBANOS,44032,C/. Ricardo OrtÌz - Ricardo OrtÌz- Alcal·,447592250721874.00,444318317060881.00,31,1.3872856928847,4.5796596065523
6050,PUNTOS DE MEDIDA URBANOS,46405,C/. Arturo Soria - Giro a Torrecilla del Puerto,447814402156103.00,44482961221456.00,31,3.9168463607065,9.5864514395347
6051,PUNTOS DE MEDIDA URBANOS,46406,C/. RamÌrez de Arellano - Agastia-Arturo Soria,447811181132566.00,444821672596398.00,31,-1.0553526307194,2.3601001121376
6209,PUNTOS DE MEDIDA URBANOS,54021,C/. Casalarreina  - CordovÌn-Ezcaray,447357893071867.00,448150726295784.00,31,2.9753822900542,6.6384006363903
3721,PUNTOS DE MEDIDA URBANOS,3006,Joaquin Costa 70 E-O (Velazquez - Gta. Lopez de Hoyos) - (Velazquez - Gta. Lopez de Hoyos),447722577811778.00,442266301569615.00,31,1.1135502685756,2.4098434075627
4164,PUNTOS DE MEDIDA URBANOS,13016,P∫ Reina Cristina E-O - Jose Anselmo Clave-Alfonso XII,447332249546809.00,441791574140298.00,31,-1.0064063660423,-3.3246147103938
4467,PUNTOS DE MEDIDA URBANOS,22302, Pl. San Juan de la Cruz S-O(Delante G.13) (P.M.5) -  Pl. San Juan de la Cruz S-O(Delante G.13) (P.M.5),447713865131026.00,441428955213334.00,31,2.5253733205507,7.8032667166050
5544,PUNTOS DE MEDIDA URBANOS,61032,Principe de Vergara N-S - Pl.Per˙-Pl.Rep˙blica Dominicana,447923280389013.00,442736320904148.00,31,-2.2361538211558,5.6224353450243
6410,PUNTOS DE MEDIDA URBANOS,64025,C/. Aquitania - Toscana-Av. Canillejas a Vic·lvaro,447486160518589.00,448182338014766.00,31,6.8626525042520,-1.9404875871865
4804,PUNTOS DE MEDIDA URBANOS,25039,AV. ANDALUCIA S-N (LATERAL),446978991605013.00,441133377336133.00,31,-9.6167268484812,2.2421227409595
5969,PUNTOS DE MEDIDA URBANOS,45023,C/. Aquitania - Pl. Alsacia-Capri,447446498932544.00,447325953281319.00,31,-4.6266231493000,1.3614978637287
4792,PUNTOS DE MEDIDA URBANOS,25026, SAN GRACIANO E-O,447175913983698.00,44037581176486.00,31,-4.3808637259719,1.2657563021813
3574,PUNTOS DE MEDIDA URBANOS,50030,SAN VICENTE PAUL S-N,447101161596641.00,43848389743182.00,31,3.1698104079661,-7.1122229019209
5144,PUNTOS DE MEDIDA URBANOS,58011,CARCASTILLO SO-NE(BESOLLA-C.V.LEGANES),447028117464558.00,43782374878428.00,31,-5.8638665131788,-1.2713964132787
5148,PUNTOS DE MEDIDA URBANOS,58015,AV.ABRANTES O-E(BESOLLA-PL.VULCANO) GIRO,447003853527593.00,437861345475055.00,31,3.6867680235182,1.0873412683492
5197,PUNTOS DE MEDIDA URBANOS,81017,P.ERMITA STO N-S(V.CARPETANA-S.AMBROSIO),447316166048966.00,438604310779578.00,31,-2.5118474428541,7.6883597081618
7008,PUNTOS DE MEDIDA URBANOS,81019,PTE S.ISIDRO E-O(P.MELANC.-P.ERMITA STO),447303149704947.00,438709882382438.00,31,1.1852974644256,3.8811104728908
5350,PUNTOS DE MEDIDA URBANOS,87019,ZAFIRO O-E (ESTEFANIA-AV.ROSALES),446691897455073.00,442703780497215.00,31,-3.9362812663081,-2.5842433056501
3860,PUNTOS DE MEDIDA URBANOS,2005, Dr. Esquerdo S-N - Alcalde Sainz Baranda-Ibiza,447447023616897.00,443331351703788.00,31,-3.9278001712330,-1.4195760459192
3564,PUNTOS DE MEDIDA URBANOS,2029, Alcalde Sainz Baranda E-O - Giro Izq. a Torrespana,447494736379661.00,443923571284377.00,31,-9.7294379630835,-3.2225690784427
3582,PUNTOS DE MEDIDA URBANOS,11036,Puerto Serrano E-O - Puerto Miravete-Embajadores,447099410384564.00,441708225160624.00,31,-2.1865939657328,6.8725559320049
6057,PUNTOS DE MEDIDA URBANOS,46412,C/. MarquÈs de Pico Velasco 53 - Misterios-Arturo Soria,447744010660092.00,445472451996392.00,31,-2.8427824298187,-6.5053862590803
6058,PUNTOS DE MEDIDA URBANOS,46413,C/. LÛpez de Aranda - Gral Aranaz-Arturo Soria,447719448122598.00,445800493390867.00,31,-4.0310739349296,-1.0762389491408
6059,PUNTOS DE MEDIDA URBANOS,46414,C/. Mesena - Emilio Rubin-Navarro Amandi,447940815258736.00,444194603544647.00,31,2.9934066314494,6.8208411252855
3609,PUNTOS DE MEDIDA URBANOS,10019,Menendez Pelayo N-S - (Pio  Baroja-NiÒo Jesus(Puerta Granada),44739624844525.00,44268886225455.00,31,-2.8851143765595,6.3570402665114
4229,PUNTOS DE MEDIDA URBANOS,14030,P∫ Acacias O-E - Piramides-Dr. Vallejo N·jera,447282922196116.00,439705472625893.00,31,8.5867980592455,-2.3079026006824
4227,PUNTOS DE MEDIDA URBANOS,14028,P∫ Acacias E-O - GasÛmetro-P∫ de los Olmos,44729658607091.00,43994223065382.00,31,1.3450864417788,-4.3917225988534
4228,PUNTOS DE MEDIDA URBANOS,14029,P∫ de los Olmos N-S - Ronda Toledo-P∫ Acacias,447302284836146.00,439798759610711.00,31,-7.2365662393795,1.6067022053431
4381,PUNTOS DE MEDIDA URBANOS,18003,Fern·ndez de los Rios. 71 O-E - Isaac Peral-Guzm·n el Bueno,447653059162064.00,439540908624321.00,31,-7.8433338314835,2.5307954833758
4409,PUNTOS DE MEDIDA URBANOS,19007,Bravo Murillo. 25 N-S - Donoso CortÈs-Fdez.de los Rios,447658227651206.00,440374984858457.00,31,-1.0768477559236,-2.4961466880309
4411,PUNTOS DE MEDIDA URBANOS,19009,Luchana. 15 N-S - Palafox-Gta.  Bilbao,447592978706996.00,440669400202085.00,31,5.8880884460154,-1.6488181475572
4383,PUNTOS DE MEDIDA URBANOS,18005,Alberto Aguilera O-E - Gta. Ruiz JimÈnez-Vallehermoso,447590616144863.00,440162620814433.00,31,6.2663484536796,-1.9005173133581
4405,PUNTOS DE MEDIDA URBANOS,19003,Eloy Gonzalo. 27 E-O - Santisima Trinidad-Gral.Alvarez Castro,447643387586899.00,440703732536735.00,31,-2.7018829244080,-8.2630052305900
4677,PUNTOS DE MEDIDA URBANOS,35043,Roberto Domingo N-S - MartÌnez Izquierdo-Av.Toreros,447641259880126.00,444028805457586.00,31,-2.6643289940502,8.2583211183003
5080,PUNTOS DE MEDIDA URBANOS,2058,Reina Cristina O-E - Andres Torrejon-Gutenberg,447336501001608.00,442277603923127.00,31,5.9345370969085,1.6697184234430
3411,PUNTOS DE MEDIDA URBANOS,97028,Av.Pablo Iglesias S-N  - San Francisco de Sales-Reina Victoria,447772167809952.00,440120058103993.00,31,4.2431607977388,9.1450926041425
7003,PUNTOS DE MEDIDA URBANOS,97098,MÈndez Alvaro S-N - Estrella Naos -Repsol,447238227350753.00,44214917617348.00,31,-5.1021508642288,-1.3124757124614
4006,PUNTOS DE MEDIDA URBANOS,8005,Jose Ortega y Gasset 45 O-E - Ppe. Vergara-Gral. Diaz Polier,447591175551601.00,442613664632072.00,31,5.2137163995212,-1.3683488769979
4679,PUNTOS DE MEDIDA URBANOS,35046,Pl.Venecia E-O - Av.Brasilia-Av.Bruselas,447710906564241.00,444001204672257.00,31,1.3877020131358,4.5767271960449
5427,PUNTOS DE MEDIDA URBANOS,43016,Av.IlustraciÛn E-O - Arzobispo Morcillo-Ginzo de Limia,448177678682593.00,440525505275304.00,31,-2.3822293301443,-7.3859490441099
5457,PUNTOS DE MEDIDA URBANOS,60010,P∫Castellana S-N - Raimundo Fern·ndez Villaverde-San Ju·n de la Cruz,447767371739233.00,441476016515001.00,31,3.7165092891952,9.0345083271790
5460,PUNTOS DE MEDIDA URBANOS,60013,P∫Castellana S-N - Hermanos PinzÛn-Pl.de Lima,447815347867442.00,441530537358678.00,31,-4.0567711942499,5.3604911965319
5463,PUNTOS DE MEDIDA URBANOS,60016,P∫Castellana S-N - Ju·n Gris- Sor Angela de la Cruz,447894434950701.00,441595248703468.00,31,9.0747568713334,-2.9819819917954
3451,PUNTOS DE MEDIDA URBANOS,60088,MÈndez Casariego E-O(Entrada Pl.Quito) - MÈndez Casariego E-O(Entrada Pl.Quito),447808727921608.00,441775555988689.00,31,6.3574040585781,1.9319423386147
5605,PUNTOS DE MEDIDA URBANOS,61099,Colombia O-E - Chile-Puerto Rico,447891281166447.00,442847596753734.00,31,8.7442832907991,-1.9508599973779
7092,PUNTOS DE MEDIDA URBANOS,61121,Acceso M-30 N-E(T˙nel) - M-30 Norte-Pl.JosÈ M™Soler,447924764710545.00,443542426618306.00,31,-5.4036813276233,1.4592886988239
7094,PUNTOS DE MEDIDA URBANOS,62085,Sor Angela de la Cruz O-E(Giro Izqda) - Capit·n Haya-Orense,447917040537293.00,441310524691784.00,31,-1.2148569755688,2.8121966615300
3425,PUNTOS DE MEDIDA URBANOS,63002,Bravo Murillo N-S - Navarra-Castilla,447853931723895.00,440497789155865.00,31,-1.2155579231106,2.6426702837651
5812,PUNTOS DE MEDIDA URBANOS,41001,Av. Ciudad de Barcelona - Seco-M-30,447247906210216.00,443184221328681.00,31,-7.6044474908058,-2.4413923324065
4413,PUNTOS DE MEDIDA URBANOS,19011,Sagasta. 13 E-O - Francisco de Rojas-Gta. Bilbao,447577533306226.00,440717635397732.00,31,1.7935489325875,5.7343712056215
4447,PUNTOS DE MEDIDA URBANOS,21025,Gral. MartÌnez Campos. 36 O-E - Zurbano-Miguel Angel,447648736126031.00,441329900737986.00,31,-2.6652767012915,6.5995239841035
5357,PUNTOS DE MEDIDA URBANOS,88001,C/. PeÒaranda de Bracamonte -  La Adrada-Av. Ensanche de Vallecas,446914609680391.00,448404371570667.00,31,-7.7263024322814,2.4842103010183
4767,PUNTOS DE MEDIDA URBANOS,24037,GIRO CEBREROS E-N(PALMIPEDOS-CARLINA),447309294410057.00,436471213270272.00,31,-1.0705502330888,-3.4950037969340
4835,PUNTOS DE MEDIDA URBANOS,26028,VILLAFUERTE N-S(VILLAJOYOS-CRA.VILLAVER),446757769772043.00,441563147446726.00,31,-1.9328275016958,-4.8906642422690
5052,PUNTOS DE MEDIDA URBANOS,49020,GRAL. RICARDOS O-E(NTRA.SRA.LUZ-BLASON),447075138731427.00,437160935432375.00,31,-3.7451651120264,3.4091035824056
5105,PUNTOS DE MEDIDA URBANOS,51006,OCA S-N (GRAL.RICARDOS-PL.ALMODOVAR),447142884934257.00,437862133467478.00,31,-3.7789352565476,3.5055618347715
3481,PUNTOS DE MEDIDA URBANOS,51024,CASTROJERIZ N-S(AV.PZA TOROS-M.GRANDES),44710906883454.00,437279685268897.00,31,2.6083565393077,-5.8583010975290
4025,PUNTOS DE MEDIDA URBANOS,9009,Alcala O-E - Almeria-Puente Ventas,447599811437249.00,443880466185815.00,31,4.4567732384526,8.4150774061734
4077,PUNTOS DE MEDIDA URBANOS,10033, Maiquez S-N - Ibiza-O¬¥Donnell,447492511987663.00,443028623002516.00,31,7.5218505453877,2.4091219811445
4215,PUNTOS DE MEDIDA URBANOS,14019,P∫ Acacias O-E - PeÒuelas-Gta. Embajadores,447308972143093.00,440313208790271.00,31,-3.9810237385989,-5.0221251458296
5684,PUNTOS DE MEDIDA URBANOS,62074,Bravo Murillo S-N - Conde Vallellano-MarquÈs de Viana,447943993832175.00,440934826800564.00,31,-2.2516662556508,4.9508198353900
4103,PUNTOS DE MEDIDA URBANOS,11032,Embajadores N-S - Bronce-Planetario,447118446145173.00,441486691056532.00,31,-2.9397888692058,8.9283367972204
4373,PUNTOS DE MEDIDA URBANOS,17042,Princesa S-N - Seneca-P∫ Moret,447661480809767.00,438948925121229.00,31,4.3186587426250,-8.6921290576347
4404,PUNTOS DE MEDIDA URBANOS,19002,Bravo Murillo. 11 N-S - Fern·ndez de los Rios-Gta.Quevedo,447646358518974.00,440370872740065.00,31,3.3640972872969,1.0018246327660
4412,PUNTOS DE MEDIDA URBANOS,19010,Francisco de Rojas. 5 N-S - Luchana-Sagasta,447583873495949.00,440762783871825.00,31,-6.9336696963558,2.1779048907239
10023,PUNTOS DE MEDIDA URBANOS,20007, Melendez ValdÈs O-E - Galileo-Vallehermoso,447625187555183.00,439970364234836.00,31,-3.8422351463595,-3.0727520083684
4427,PUNTOS DE MEDIDA URBANOS,21002,Gral. Martinez Campos E-O - Fdez.de la Hoz-Modesto Lafuente,447648774975386.00,441161390626892.00,31,-1.6570421336784,3.8000610164121
5474,PUNTOS DE MEDIDA URBANOS,60028,Alberto Alcocer E-O - P∫Castellana-Doctor Fleming,447913362120177.00,441680917881401.00,31,-3.2488170511588,7.9601828499247
5658,PUNTOS DE MEDIDA URBANOS,62042,Sor Angela de la Cruz O-E - Infanta Mercedes-Orense,44792196416966.00,441125483421666.00,31,2.6243270358651,6.5003380981879
7027,PUNTOS DE MEDIDA URBANOS,40032,Av. Pablo Neruda - Candilejas-Romeo y Julieta,447051896062023.00,443862463981982.00,31,-4.0155432232464,9.0898233535733
5836,PUNTOS DE MEDIDA URBANOS,41026,C/. Pio Felipe - Pio Felipe-Av. Albufera,447170580309316.00,444585203835758.00,31,4.1757352339579,-5.2933812289145
6159,PUNTOS DE MEDIDA URBANOS,53029,Av. Trece Rosas  - Av. Trece Rosas-Pl. AgustÌn Gonz·lez,447550346175286.00,445231322211688.00,31,2.1450749073217,-6.8389135987656
6929,PUNTOS DE MEDIDA URBANOS,57021,Playa de Riazor - Arroyomolino - Av. LogroÒo,448092725569435.00,450655016098562.00,31,-3.8094616637126,9.4927170534356
6487,PUNTOS DE MEDIDA URBANOS,68005,Ronda del Sur - Cooperativa ElÈctrica-Av. EntrevÌas,446988430166724.00,444029024473515.00,31,-4.5820306702486,1.1100945891248
4768,PUNTOS DE MEDIDA URBANOS,24038,CEBREROS E-O(PALMIPEDOS-CARLINA),447309150525685.00,436477165270563.00,31,4.1820986028048,8.2786264275371
5058,PUNTOS DE MEDIDA URBANOS,49027,BLASA PEREZ N-S(TOBOSO-GRAL.RICARDOS),447175288242511.00,438396525874108.00,31,-4.7210455683139,-1.0133989485903
5059,PUNTOS DE MEDIDA URBANOS,49028,PEDRO DIEZ N-S(V.LLAGUNO-GRAL.RICARDOS),447159495844859.00,438205382021049.00,31,2.1524385058525,5.3518835982531
3686,PUNTOS DE MEDIDA URBANOS,49030,OCA N-S(MATILDE FERNANDEZ-GRAL.RICARDOS),447138477988722.00,437929040850385.00,31,-1.1922418940975,2.6188549760648
4952,PUNTOS DE MEDIDA URBANOS,38034,AV. POBLADOS E-O(BELZUNEGUI-ALISEDA),446971014873066.00,437291537349279.00,31,9.6576951492543,2.5473403697432
5054,PUNTOS DE MEDIDA URBANOS,49022,G.RICARDOS O-E(PL.TOROS-CLARA CAMPOAMOR),447104144538558.00,437645691638804.00,31,5.1279244957406,1.1122243415017
5055,PUNTOS DE MEDIDA URBANOS,49023,C.CAMPOAMOR S-N(A. ABELLAN-G.RICARDOS),447108041337269.00,437766459646118.00,31,1.0618617235231,-2.2952361203579
5056,PUNTOS DE MEDIDA URBANOS,49025,CASTRO ORO S-N(FERREIRA-GRAL.RICARDOS),447144910876688.00,438163401418517.00,31,1.6550537735066,-4.1902860740493
5057,PUNTOS DE MEDIDA URBANOS,49026,C.VIEJO LEGANES S-N(RADIO-GRAL.RICARDOS),447180520115374.00,438677499419256.00,31,-8.0335611817076,-2.5993959176579
5078,PUNTOS DE MEDIDA URBANOS,50015,VIA E-O(MERCEDES DOMINGO-PORTALEGRE),447114561284402.00,438829300995916.00,31,-1.9248223319644,4.1271294072004
3687,PUNTOS DE MEDIDA URBANOS,50028, LUIS GOMEZ S-N,447117275156744.00,438171229144564.00,31,3.9953960110485,-1.1573504198895
5094,PUNTOS DE MEDIDA URBANOS,50033, GUADALETE E-O,447140338773249.00,439335246059979.00,31,9.2608821472615,2.1516405617864
3576,PUNTOS DE MEDIDA URBANOS,51001,OCA O-E (ALFARO-PL. ALMODOVAR),447146517962623.00,437619961465816.00,31,-4.4277245092568,1.0552682964750
5268,PUNTOS DE MEDIDA URBANOS,84033,SALIDA NISSAN(FACTORIA-C.B?.FORTUNA,446883926622152.00,434623675969354.00,31,2.7778017942238,-6.0065952133247
5343,PUNTOS DE MEDIDA URBANOS,87008,CIRCULO O-E(SAL.CARREFOUR-AV. OROVILLA),446838993549591.00,441472214780012.00,31,-2.8972800999210,-7.1412728529218
5344,PUNTOS DE MEDIDA URBANOS,87009,AV. OROVILLA S-N(UNANIMIDAD-CIRCULO),4468340889812.00,441546239806268.00,31,-1.7101674047549,3.6939710736924
5345,PUNTOS DE MEDIDA URBANOS,87010,ROSALES O-E(AV.ANDALUCIA-OROVILLA),446908113661813.00,441251941742641.00,31,3.9748442434070,-4.4231317123387
5387,PUNTOS DE MEDIDA URBANOS,94003,S. EZEQUIEL NO-SE(V.TOBALINA-REAL PINTO),446523292871137.00,439499107724248.00,31,-4.9464384738085,-1.2633583516983
5165,PUNTOS DE MEDIDA URBANOS,98023,CTRA. DE BOADILLA O-E (AZOR-CARABIAS),447254357529276.00,434907520995194.00,31,6.6197005257091,1.7952797287924
3641,PUNTOS DE MEDIDA URBANOS,98029,CT.CARABA.-ARAVACA O-E(M502-SANCHIDRIAN),447236538256535.00,434363293039995.00,31,-6.1676477115032,1.3543241723434
5163,PUNTOS DE MEDIDA URBANOS,98030,CT.CARABA.-ARAVACA O-E(M502-SANCHIDRIAN),447230966416237.00,434396385378613.00,31,4.1110849969050,8.2530979562543
5161,PUNTOS DE MEDIDA URBANOS,98032,VILLAVIC.N-S(SEDANO-CT.CARAB-ARAV),447226023266364.00,4344612202104.00,31,-6.7940166341346,1.8349471299641
3473,PUNTOS DE MEDIDA URBANOS,31022,Alcalde Martmn Alzaga E-O(Aguilar de Campoo-Antonio Machado),447955632224101.00,439187072668873.00,31,-2.9454780783758,6.6303814711397
4516,PUNTOS DE MEDIDA URBANOS,31027,ALMIRANTE FCO. MORENO S-N(VALLS FERRER-PABLO IGLESIAS),447862037629385.00,439506119390009.00,31,4.8685639119055,1.2185808654425
3920,PUNTOS DE MEDIDA URBANOS,4014,Alfonso XIII S-N - Carlos Pereira-Ramon y Caja,447828086130293.00,443504285954027.00,31,3.9539013228715,-2.1080481641832
3924,PUNTOS DE MEDIDA URBANOS,4018,Doctor Arce S-N - Estevez-Pl. CataluÒa,447788223167814.00,442429442774682.00,31,4.7294889294763,-1.0282896246437
4214,PUNTOS DE MEDIDA URBANOS,14018,Embajadores N-S - Gta. Embajadores-Moratines,447310357454423.00,440519352211291.00,31,2.3447693060718,-5.8384236125098
4218,PUNTOS DE MEDIDA URBANOS,14022,P∫ Acacias E-O - Embajadores-P∫ Esperanza,447307586080051.00,440258662515017.00,31,1.3816633508044,3.5700084950202
4313,PUNTOS DE MEDIDA URBANOS,16042,Cuesta San Vicente O-E - Bailen-Gran Via,447508971369868.00,439661351260145.00,31,-3.9102686131427,-4.4224490681251
5652,PUNTOS DE MEDIDA URBANOS,62037,Orense N-S - General Yag¸e-Pedro Teixeira,447880188618076.00,441207451384537.00,31,4.6679016555730,1.1209881342621
6229,PUNTOS DE MEDIDA URBANOS,55009,C/. Moscatelar - Mil·n-Pl. Liceo,447890560363157.00,445327672870628.00,31,1.1440564481627,-2.6813591809084
6230,PUNTOS DE MEDIDA URBANOS,55010,C/. Silvano - Colegio Liceo-Moscatelar,447903056520504.00,445539433191193.00,31,-1.7179388940122,-4.4378188007525
3688,PUNTOS DE MEDIDA URBANOS,84015,AV EURO N-S(REUS-AGUACATE),446914265554122.00,437162214089158.00,31,2.7990706233969,6.8260234080334
5439,PUNTOS DE MEDIDA URBANOS,43028, Santiago de Compostela  E-O - Fco. Llorens-Av.Betanzos,448157178402415.00,439723428165022.00,31,3.9003882566105,4.2427369481538
6368,PUNTOS DE MEDIDA URBANOS,59014,C/. Hermanos de Pablo - JosÈ del Hierro-Virgen del Portillo,447685682085553.00,445232215301672.00,31,1.1843937973590,-2.7721109659914
6370,PUNTOS DE MEDIDA URBANOS,59016,C/. Salvador de Madariaga - Virgen de Lourdees-Esteban Mora,447667095800708.00,444346137817778.00,31,-1.1249659001032,3.7406394964708
6497,PUNTOS DE MEDIDA URBANOS,65017,Fuente Carrantona S-N - JosÈ BergamÌn-M-23,447393759730902.00,4467823629062.00,31,-1.0310849317286,-2.7891630166740
3929,PUNTOS DE MEDIDA URBANOS,4024,Gabriel-Galan S-N - Guerrero Mendoza-Ramon y Cajal,447835051601218.00,443189431873844.00,31,1.0039264695693,-2.3499564405187
4200,PUNTOS DE MEDIDA URBANOS,14002,San Sebastian N-S - Huertas - Atocha,447415784109746.00,440596639402905.00,31,-1.3035016388077,3.3874707347105
4515,PUNTOS DE MEDIDA URBANOS,31026,PABLO IGLESIAS O-E(ALMIRANTE FCO. MORENO-NUMANCIA),447867729121983.00,439642604572241.00,31,-5.0697868260671,1.1048571170833
3440,PUNTOS DE MEDIDA URBANOS,31029,MORERAS S-N(RAMIRO MAEZTU-JUAN XXIII),447838228887265.00,439199223973658.00,31,-6.3991432743871,-1.7674334465503
5440,PUNTOS DE MEDIDA URBANOS,43029, RamÛn Castroviejo O-E - Pto.Maspalomas-Av.Betanzos,448145942447079.00,439649368210723.00,31,4.7109015314450,-1.1215025827465
5542,PUNTOS DE MEDIDA URBANOS,61030,Av.Pio XII  N-S - Jerez-Macarena,447961238708684.00,442795136011394.00,31,-3.8924622518474,6.9170400479891
5571,PUNTOS DE MEDIDA URBANOS,61060,P∫ de la Habana N-S - Honduras -Domingo Fern·ndez,447918658382548.00,442337029905434.00,31,2.8330831834607,6.1668830689610
6389,PUNTOS DE MEDIDA URBANOS,64002,Av. Canillejas a Vic·lvaro - Canal de BÛsforo-NÈctar,447702612958262.00,447943317789078.00,31,-5.7372024350356,-1.5805839979173
6390,PUNTOS DE MEDIDA URBANOS,64003,Av. Canillejas a Vic·lvaro - Juli·n Camarillo-Etruria,447663973360996.00,448105090780091.00,31,-1.8681298807507,4.8339202948540
4747,PUNTOS DE MEDIDA URBANOS,24010,GALLUR E-O(ESCALONILLA-GTA.CARMENES),447214788872804.00,437087005466673.00,31,-5.8646596049514,1.7409813974389
9936,PUNTOS DE MEDIDA URBANOS,87028,PERIANA N-S(RUTILO-AV. ROSALES),446879105684798.00,441744914848622.00,31,-4.4510271511017,-1.0729773417724
5402,PUNTOS DE MEDIDA URBANOS,94021,V.TOBALINA S-N(REAL PINTO-S.EZEQUIEL),4465149856344.00,439339366978563.00,31,-4.7282156023513,1.1376547144117
7103,PUNTOS DE MEDIDA URBANOS,30031,SEGOVIA 65. E-O (RONDA SEGOVIA - P: VIRGEN DEL PUERTO),447415899138394.00,439108167938966.00,31,1.5888312138593,-3.4204378081861
4326,PUNTOS DE MEDIDA URBANOS,30032,P: VIRGEN DEL PUERTO. 13 S-N(MANZANARES-SEGOVIA),447404787888007.00,438924992529197.00,31,-2.7913687721108,8.4505714401589
4327,PUNTOS DE MEDIDA URBANOS,30033,PUENTE SEGOVIA O-E(P: EXTREMADURA -P: VIRGEN DEL PUERTO),447416311388683.00,438775007175741.00,31,-5.5265377900779,-1.5727537826563
5449,PUNTOS DE MEDIDA URBANOS,43038,Av.Monforte de Lemos E-O(Giro Izqda.Pl.Arteijo),448136250718482.00,440217715481146.00,31,-2.1639277702085,-4.9172201876541
4733,PUNTOS DE MEDIDA URBANOS,93016,Valle de Mena O-E(Valderodrigo-Camino de ganapanes),448037555244658.00,439433748776286.00,31,6.0149389953036,1.3378481705154
5203,PUNTOS DE MEDIDA URBANOS,28004,BARDEGUERAL N-S (GIRO),447837156835444.00,434652356634631.00,31,1.0512430034678,2.4019243769541
5947,PUNTOS DE MEDIDA URBANOS,45001,C/. Hermanos GarcÌa Noblejas - Dr. Cirajas-Vital Aza,447647974271376.00,446140193199412.00,31,-1.3501100553104,3.0201864447712
6393,PUNTOS DE MEDIDA URBANOS,64006,Av. Canillejas a Vic·lvaro - MarÌa Sevilla Diago-J.G¬™. Boutan,447593494869556.00,448257637673269.00,31,5.1429964194382,-1.2294949540612
3409,PUNTOS DE MEDIDA URBANOS,24001,SEPULVEDA N-S(CEBREROS-C.FCO.J. JIMENEZ),44728012222979.00,436117559212214.00,31,1.6218963635560,5.1549215124705
4941,PUNTOS DE MEDIDA URBANOS,38022,AV.POBLADOS O-E(TANATORIO-CTRA. TOLEDO),446968182033246.00,438856127504281.00,31,4.4517574474104,-9.6770451563208
5772,PUNTOS DE MEDIDA URBANOS,97021,Av.Reina Victoria E-O  - Av.Pablo Iglesias -Ib·nez √çbero,447784049313969.00,439996430328316.00,31,1.0744499544846,2.8325082354568
4948,PUNTOS DE MEDIDA URBANOS,38030,E.MONTIJO S-N(POBLADOS-N.S.FATIMA)FRENT,447008846982446.00,436504065126815.00,31,1.1853470851932,3.0639265318649
7006,PUNTOS DE MEDIDA URBANOS,38041,A.R.SACRISTAN E-O(PARTIDA A.R.-ZARZAMOR),44696237000672.00,436731152671208.00,31,-7.2463226547983,1.9598779488808
5747,PUNTOS DE MEDIDA URBANOS,91005,Av. Pio XII E-O (Calle 30 - Av. Burgos),448068898829637.00,442921586023172.00,31,-6.5869425796674,-2.0259335905832
4726,PUNTOS DE MEDIDA URBANOS,93009,Valderodrigo E-O(Valle de Mena-Antonio Machado),44803647573815.00,43915283049977.00,31,1.1415915213021,-2.6327774839022
5874,PUNTOS DE MEDIDA URBANOS,42006,Av. Cardenal Herrera Oria 237 O-E(Isla de Arosa-La MasÛ),448178353787266.00,439412537612473.00,31,-4.1215551236141,6.9070834023319
3813,PUNTOS DE MEDIDA URBANOS,73407,T√ÅCTICO - AV. ARROYOFRESNO. 19 N-S (FUENTELAREINA - CANTALEJO),448103142858631.00,437206882194829.00,31,8.1384370338936,1.8887158026496
6577,PUNTOS DE MEDIDA URBANOS,75403,ISLAS AZORES O-E,448312093204501.00,441820421107751.00,31,-1.5365290239209,-3.9568414094499
4850,PUNTOS DE MEDIDA URBANOS,27033,VILLALONSO SO-NE(REAL PINTO-S.JENARO),446703137288347.00,440181019360878.00,31,-8.1867275266381,-2.6586372097079
5247,PUNTOS DE MEDIDA URBANOS,49034,GRAL. RICARDOS E-O(PEDRO DIEZ-OCA),447145386675845.00,43812610874885.00,31,5.8518025437298,-1.7288913004305
10025,PUNTOS DE MEDIDA URBANOS,49036,OCA N-S(MATILDE FERNANDEZ-GRAL. RICARDOS,447138051740988.00,437926272316769.00,31,-8.9458446642941,-2.3810613252347
6627,PUNTOS DE MEDIDA URBANOS,79402,C/. Pintor Ignacio Zuloaga - PrÌncipe Carlos-Niceto Alcal· Zamora,44820974540841.00,44485315078963.00,31,-7.9838854372465,2.5885174202467
4776,PUNTOS DE MEDIDA URBANOS,48007,R. YBARRA S-N(D. BARRANCO-M. USERA),447078074417433.00,439736967093651.00,31,2.7520859642548,8.3696750697001
3743,PUNTOS DE MEDIDA URBANOS,60049,Gral.PerÛn E-O - Presidente C·rmona-Cte.Zorita)(Giro E-S),447842760806058.00,440969093865571.00,31,6.9285953478330,2.1753783895607
6620,PUNTOS DE MEDIDA URBANOS,79027,Av. Alcalde Conde Mayalde - PrÌncipe Carlos-Infanta Catalina Micaela,448203579681642.00,444098302127339.00,31,-3.7333121021613,8.1025809043738
6621,PUNTOS DE MEDIDA URBANOS,79028,Av. Alcalde Conde Mayalde - PrÌncipe Carlos-Infanta Catalina Micaela,448214380818851.00,444180277628852.00,31,-3.4842634744782,8.5655270472439
5502,PUNTOS DE MEDIDA URBANOS,60059,P∫de la Habana N-S - GutiÈrrez Solana-Pl.Quito,44781739988123.00,441808092489915.00,31,-5.1946535485981,1.4802242326596
6628,PUNTOS DE MEDIDA URBANOS,79403,C/. Alcalde Aristizabal ManchÛn - Alcalde Henche Plata-Principe Carlos,44824078289061.00,444966082135368.00,31,7.2573200288411,-2.3000754490910
6629,PUNTOS DE MEDIDA URBANOS,79404,C/. Alcalde √Ålvarez de Villaamil - Alcalde Henche Plata-PrÌncipe Carlos,448249702628054.00,444956416614953.00,31,-9.3749524475610,-3.1028350097106
5042,PUNTOS DE MEDIDA URBANOS,49009,G.RICARDOS E-O(ALEJ.SANCHEZ-PEDRO DIEZ),447164205082833.00,438348088259179.00,31,-2.5439881380311,-7.7682837932582
5064,PUNTOS DE MEDIDA URBANOS,96019,OPORTO O-E(ELVAS-PORTALEGRE),447101533165189.00,438577719298264.00,31,-3.9209066233901,5.1245121385267
5071,PUNTOS DE MEDIDA URBANOS,96020,PORTALEGRE S-N(AV. ABRANTES-OPORTO),447091696146298.00,438678274110487.00,31,-3.7863471421887,-3.0230640240228
5087,PUNTOS DE MEDIDA URBANOS,96023,ANT. LEYVA S-N(ALEJANDRO SANCHEZ-S. LUCR,447124287366693.00,439275314803186.00,31,-5.8112839928272,1.7026727725123
5085,PUNTOS DE MEDIDA URBANOS,96024,ANT. LEYVA N-S(S. LUCRECIA-PL.FDEZ.LADRE,447111802377322.00,439242575342696.00,31,-1.2089877735053,2.6046036305162
3634,PUNTOS DE MEDIDA URBANOS,96037,ANTONIO LEYVA S-N (ARLANZA-GUADALETE),447124642440686.00,439280383726424.00,31,-4.3449411721008,1.0413651291290
3575,PUNTOS DE MEDIDA URBANOS,96700,OPORTO O-E(ELVAS-PORTALEGRE),447100934250284.00,438600232683952.00,31,-3.7766685878964,-2.8892641993652
5025,PUNTOS DE MEDIDA URBANOS,98001, PTA. DEL ANGEL S-N,447420295489643.00,438236941498933.00,31,4.0465994719909,-9.7038659871339
4565,PUNTOS DE MEDIDA URBANOS,32029,MELCHOR FERNANDEZ ALMAGRO O-E(GINZO DE LIMIA-FINISTERRE),448115053242381.00,440537023643.00,31,-1.3951062582096,-3.6051535427209
5756,PUNTOS DE MEDIDA URBANOS,92002,Marquis de Viana O-E (Ruiz Palacio- Gladiolo),447958603166025.00,440515496407762.00,31,-2.1833019138719,-6.8347254501071
4727,PUNTOS DE MEDIDA URBANOS,93010,Antonio Machado N-S(Centro Cultural-Sinesio Delgado),44799667757618.00,439106351657058.00,31,-4.1235507581400,-9.9036067376179
4728,PUNTOS DE MEDIDA URBANOS,93011,Sinesio Delgado E-O(Gta.Piedrafita Cebreros-Antonio Machado),447993854968827.00,43920893041728.00,31,1.0346156093567,-3.4005252618924
5396,PUNTOS DE MEDIDA URBANOS,94015,DOMINGO PARRAGA E-O(G.ACEBO-R.PINTO),44661708839136.00,439988319563179.00,31,3.8582553875868,3.3694847772385
4548,PUNTOS DE MEDIDA URBANOS,32006,AV. BETANZOS N-S (CELANOVA-PIEDRAFITA CEBRERO),448053513313822.00,439697838046222.00,31,4.7610983190715,1.1374740696892
4562,PUNTOS DE MEDIDA URBANOS,32023,FINISTERRE N-S(MELCHOR FERNANDEZ ALMAGRO-VILLA MARIN),448108085305846.00,440670594814813.00,31,-1.8035202848732,5.7622303680400
5927,PUNTOS DE MEDIDA URBANOS,44029,C/. Virgen de la Alegria  - Virgen de la AlegrÌa- Alcal·,447616205250066.00,444237786978978.00,31,2.1503753925383,6.8306186616343
5434,PUNTOS DE MEDIDA URBANOS,43023,GINZO DE LIMIA S-N(MELCHOR FDEZ. ALMAGRO-AV.MONFORTE  LEMOS),448128724873898.00,440460233631038.00,31,-3.8052175678609,-1.4949111291199
5445,PUNTOS DE MEDIDA URBANOS,43034, PLAZA VERMN,448125667033746.00,439945737946336.00,31,5.6821235942962,-1.6371056605269
9913,PUNTOS DE MEDIDA URBANOS,93030,Valle de Mena O-E (Isaac Rabmn-Jzan Andris),448062534239565.00,438719278930125.00,31,-2.2963843357098,7.1034580482954
5936,PUNTOS DE MEDIDA URBANOS,44038,Emilio Ferrari - Amos Escalante - Alcal·- Alcal·,447639551911227.00,445503618321271.00,31,-2.7771580607084,-6.3589275403566
6555,PUNTOS DE MEDIDA URBANOS,74009,C/. Arrastaria - Aracne-Samaniego,447781638823873.00,450411128395856.00,31,-1.8485501206547,-6.0847215814488
3632,PUNTOS DE MEDIDA URBANOS,39054,SANTUARIO N-S(ASUNCION-EVANGELIOS),447083566979842.00,440701778565755.00,31,9.6884330336282,-2.0894388602065
3682,PUNTOS DE MEDIDA URBANOS,39055, CTO VEGA S-N(CTO LEPANTO-CTO VICT),447053209240288.00,440570431767861.00,31,1.1902076773439,-3.1161162482280
4774,PUNTOS DE MEDIDA URBANOS,48003,MAR. USERA E-O(GAB. USERA-R.YBARRA),447099468762084.00,439936438601631.00,31,9.5737961996542,2.5493988905154
4777,PUNTOS DE MEDIDA URBANOS,48006,MANUEL NOYA N-S(M. SILVELA-MARCELO USERA,447103833461257.00,43964406232608.00,31,3.7652054725342,-1.2581744282823
4926,PUNTOS DE MEDIDA URBANOS,38005,AV. POBLADOS O-E(AV. EURO-ABRANTES),446971056662375.00,437421379696642.00,31,1.8504134634081,5.8318408711684
6035,PUNTOS DE MEDIDA URBANOS,46028,Ctra. Canillas - Ctra. Canillas-LÛpez de Hoyos,447958039733508.00,444420850517686.00,31,-4.0125113623527,-2.6272109919983
5346,PUNTOS DE MEDIDA URBANOS,87011,OROVILLA S-N(SILVINA-AV.ROSALES),44689100249867.00,441308709176739.00,31,1.5910107097887,5.1526086771844
5347,PUNTOS DE MEDIDA URBANOS,87012,AV. ROSALES E-O (SILVINA-ANTEQUERA),44689553761483.00,44145844495655.00,31,-7.6395929524890,1.6480254383036
5403,PUNTOS DE MEDIDA URBANOS,94022,S.EZEQUIEL E-O(REAL PINTO-V.TOBALINA),446523961107674.00,439416025142659.00,31,2.6692701860598,-5.7324434364803
10017,PUNTOS DE MEDIDA URBANOS,94026,VALLE TOBALINA S-N (MONTEJO-BASCU?UELOS),446564692814265.00,439351550110883.00,31,-2.5246647386825,-5.4211531734782
3628,PUNTOS DE MEDIDA URBANOS,96040,N.SRA.FATIMA S-N(ESPINAR-MU?OZ GRANDES),447110648667701.00,436952127714942.00,31,-1.3521649848012,4.3736184920610
5131,PUNTOS DE MEDIDA URBANOS,96041,ESPINAR N-S(JUAN ALONSO-N.S.FATIMA),447109448061967.00,436926393173179.00,31,-2.5980378262308,7.8738328357772
6830,PUNTOS DE MEDIDA URBANOS,98013,YEBENES S-N(CGIO.H.CORTES-DUQ.PARCENT),447209194575517.00,436183551050682.00,31,-9.3311139304021,-3.0423780372164
4903,PUNTOS DE MEDIDA URBANOS,98014,VALMOJADO N-S(YEBENES-SESE?A),447238257956073.00,435889597276855.00,31,-5.5389924263367,1.2228286107545
4324,PUNTOS DE MEDIDA URBANOS,30017,M-30 SALIDA TZNEL O-E(ENTRADA GTA. SAN VICENTE) (90MTS),447470870772059.00,438982415329783.00,31,3.8779102062392,8.6785199814133
3651,PUNTOS DE MEDIDA URBANOS,30018,M-30 SALIDA TZNEL O-E(ENTRADA GTA. SAN VICENTE) (150MTS),447466423420859.00,438971300954988.00,31,-2.2741184541917,-7.0485460367268
4489,PUNTOS DE MEDIDA URBANOS,30019,MARTIN FIERRO N-S(JUAN HERRERA-OBISPO TREJO),447671418224354.00,438033785395605.00,31,-3.7945468578510,-3.6530864531418
6364,PUNTOS DE MEDIDA URBANOS,59010,C/. Virgen del Sagrario - Virgen de Lluc-Elfo,44764777567021.00,445093830411437.00,31,1.2605497313626,-2.7519726575703
6392,PUNTOS DE MEDIDA URBANOS,64005,Av. Canillejas a Vic·lvaro - Albaida-Hinojal,447625624636018.00,448202739375542.00,31,-9.2144158716070,3.0569164233070
4524,PUNTOS DE MEDIDA URBANOS,31040,DR.FEDERICO RUBIO Y GALI E-O(MORERAS-FCO. DE DIEGO),44786066716572.00,439553580274735.00,31,-1.0196476300598,-3.3535417718082
5854,PUNTOS DE MEDIDA URBANOS,41046,Av. Albufera - Sierra Carbonera-Ntra. Sra. Perpetuo Socorro,44719522645371.00,443950294371332.00,31,-7.5835074829493,-2.0925134428965
6382,PUNTOS DE MEDIDA URBANOS,59028,Av. Badajoz - M-30-Salvador de Madariaga,447709861524087.00,444282392674921.00,31,2.0892608251230,4.6331709971414
6402,PUNTOS DE MEDIDA URBANOS,64015,Av. Canillejas a Vic·lvaro - Etruria-Canal de BÛsforo,447686029648659.00,448020167727189.00,31,7.7988984588444,2.1754915217186
6420,PUNTOS DE MEDIDA URBANOS,65002,C/. Fuente Carrantona  - JosÈ BergamÌn-M-23,447382461371386.00,446719667747699.00,31,5.2656517898430,-1.5240945438113
3557,PUNTOS DE MEDIDA URBANOS,66001,Pl. Grecia - Pl. Grecia-M-40,447637685646081.00,448574314122392.00,31,4.8035822227305,-9.8240436612349
3572,PUNTOS DE MEDIDA URBANOS,49003,M.GRANDES N-S (G.RICARDOS-J.CASTELLANOS),447097923331715.00,437290069641402.00,31,7.9573946797453,-1.7203930646038
3685,PUNTOS DE MEDIDA URBANOS,49029,OPORTO S-N(VALLE ORO-GRAL. RICARDOS),447131661485215.00,43806819712794.00,31,2.2206113804520,5.5078948994907
3573,PUNTOS DE MEDIDA URBANOS,50029, ARGUESO N-S,447104957956305.00,438490313190956.00,31,5.2810442753021,-1.4847803642632
5137,PUNTOS DE MEDIDA URBANOS,58006,AV. ABRANTES S-N(PELICANO-PORTALEGRE),44707755432091.00,438586784539835.00,31,-3.5118434098344,1.0339858548520
5173,PUNTOS DE MEDIDA URBANOS,80030, SALIDA PARQUE BOMBEROS,447128468882252.00,435217981219053.00,31,3.7548105231005,-4.6689537492544
9876,PUNTOS DE MEDIDA URBANOS,79042,Ana de Austria - Isabel Clara Eugenia-Niceto Alcal· Zamora,448324052028185.00,444581183083907.00,31,-9.5425065565808,-2.2458474392547
9877,PUNTOS DE MEDIDA URBANOS,79043,Ana de Austria - Ignacio Aldecoa-Niceto Alcal· Zamora,448349196245002.00,444733108680685.00,31,-1.8647412236700,6.0200480741190
9856,PUNTOS DE MEDIDA URBANOS,41059,Gandia E-O - VÌa de Servicio- Cerro Negro,447232898360374.00,44322300661899.00,31,-4.8837049156792,1.0734830179428
9854,PUNTOS DE MEDIDA URBANOS,70019,Av. PartenÛn - Ribera del Sena-Av. Capital de EspaÒa,447958435377614.00,447767439666151.00,31,-2.6503595012117,8.3287270929933
10001,PUNTOS DE MEDIDA URBANOS,57022,Av. LogroÒo - TimÛn-Pajarones,448088465900846.00,45074805221551.00,31,8.6477523226178,2.0761323228248
9855,PUNTOS DE MEDIDA URBANOS,70020,Av. PartenÛn - VÌa de DublÌn-Av. Capital de EspaÒa,447962497462731.00,447933600720962.00,31,4.8680056944408,1.0484543044095
4581,PUNTOS DE MEDIDA URBANOS,32051,AV. ASTURIAS E-O(PL. CASTILLA-SAN AQUILINO),447998754688919.00,44158347107227.00,31,-1.7484879410818,-5.6201660113024
5435,PUNTOS DE MEDIDA URBANOS,43024,FINISTERRE N-S(SANTIAGO DE COMPOSTELA-AV.MONFORTE  LEMOS),448149789502145.00,440533360899137.00,31,3.1000763122373,-6.7183825761382
5757,PUNTOS DE MEDIDA URBANOS,92003,Marquis de Viana E-O (Robledo - P: Direccisn),447972168481266.00,440282502786005.00,31,7.3145758408144,1.6256908961261
9883,PUNTOS DE MEDIDA URBANOS,93020,Monforte de Lemos E-O(Puerto Maspalomas-Cno. Ganapanes),448116728355964.00,439466054667719.00,31,-4.6407255277078,-1.0807119350418
6900,PUNTOS DE MEDIDA M-30,04TL40PM01,04TL40PM01,44730385081656.00,444716895770585.00,31,1.1135509225964,-2.4198069539160
6969,PUNTOS DE MEDIDA URBANOS,70021,Av. Capital de EspaÒa - Acceso Campo de las Naciones,447954649496334.00,447889236411625.00,31,-2.0339331336831,-4.4652867603962
6344,PUNTOS DE MEDIDA URBANOS,57014,Av. LogroÒo - Isla de Cuba-Luis de la Mata,447808280047382.00,448316152382837.00,31,6.8224696440297,1.4943566754539
10008,PUNTOS DE MEDIDA URBANOS,44046,C/. Alcal· - AlbarracÌn-Tampico,447692047987179.00,446465031999699.00,31,-1.2273716755874,3.2662647484669
10007,PUNTOS DE MEDIDA URBANOS,44045,C/. Alcal· - Alfonso GÛmez-Tampico,447696109125593.00,446553216130622.00,31,1.9816550888505,6.3982738251545
6346,PUNTOS DE MEDIDA URBANOS,57017,Av. LogroÒo - Luis de la Mata-Isla de Cuba,447807562328582.00,448326226622116.00,31,3.5235502792825,8.0842152130635
9983,PUNTOS DE MEDIDA URBANOS,68010,Av. EntrevÌas - La Mancha-Membezar,4470597695134.00,443308957700544.00,31,-2.8743475778603,-6.5407155604753
5863,PUNTOS DE MEDIDA URBANOS,41402,C/. Cerro Garabitas - Av. Monte Igueldo-Melquiades Biencinto,447220046802695.00,443388636839974.00,31,1.1082629201607,3.6772294943959
6328,PUNTOS DE MEDIDA URBANOS,56404,C/. Guisona - Guisona-LÛpez de Hoyos,448010712065321.00,444704333905442.00,31,-1.5761180733445,-5.1636349054979
3429,PUNTOS DE MEDIDA URBANOS,41401,C/. Sierra de Javalambre - Francisco Iglesias-Av. Albufera,44723205802391.00,443454660343834.00,31,-3.0061273037299,-6.5591862713065
3547,PUNTOS DE MEDIDA URBANOS,97401,Cartagena Sent. Norte - Coslada - Av. Am√É¬©rica,447686110927518.00,443033509702807.00,31,2.2835864705479,7.1766066804817
4705,PUNTOS DE MEDIDA URBANOS,90030,SALIDA CALLE 30 E-O(MARQUES VADILLO-M-30 -GTA. PIR√É¬ÅMIDES) 280mts,447423216142426.00,440133161381241.00,31,4.0421011253553,-9.0650299413800
6860,PUNTOS DE MEDIDA M-30,15RR60PM03,15RR60PM03,447263377058342.00,439676471217593.00,31,-2.0564524083102,6.4604146604811
6861,PUNTOS DE MEDIDA M-30,15RR60PM02,15RR60PM02,447262860478032.00,439672855155423.00,31,-3.8759458278772,3.8976927464719
7118,PUNTOS DE MEDIDA M-30,14NC71PM01,14NC71PM01,447231222936295.00,439836274686502.00,31,-3.5958289285227,1.0605770511833
10012,PUNTOS DE MEDIDA URBANOS,3103001,Nueva Zelanda S-N - Isla Cristina-Gta.Isaac RabÌn,448016885723535.00,43871552927732.00,31,5.6624843452454,1.6377981749475
4332,PUNTOS DE MEDIDA URBANOS,16065, Mozart N-S (entrada cruce) -  Mozart N-S (entrada cruce),447505907236143.00,438903861365243.00,31,2.9597962029449,8.8991605646809
4543,PUNTOS DE MEDIDA URBANOS,32002, P: DIRECCISN S-N(AIZQUIVEL-CAPITAN BLANCO ARGIBAY),448010356588415.00,440006430118633.00,31,-3.6549508786797,-8.2093766185442
6984,PUNTOS DE MEDIDA URBANOS,67025,Bulevar JosÈ Prat - Av. Democracia-Cordel Pavones,447221189620455.00,447602406572317.00,31,-4.1286334790443,-1.8365294367307
6985,PUNTOS DE MEDIDA URBANOS,67026,Bulevar JosÈ Prat - Bulevar Indalecio Prieto-Cordel Pavones,447227906227815.00,447392352163795.00,31,-6.5116282623215,1.9667695283369
6986,PUNTOS DE MEDIDA URBANOS,67027,Bulevar JosÈ Prat - Cordel Pavones-Bulevar Indalecio Prieto,447220573534486.00,447404582056891.00,31,2.6502978980331,-8.3179910187215
6990,PUNTOS DE MEDIDA URBANOS,67028,Bulevar Indalecio Prieto - Poetas-Bulevar JosÈ Prat,4472163022595.00,447260323400224.00,31,5.1032830159725,1.2411195106796
6989,PUNTOS DE MEDIDA URBANOS,67029,Bulevar Indalecio Prieto - Pinillas-Bulevar JosÈ Prat,447239697251357.00,447300137101506.00,31,-1.9863428794153,4.4382725555530
6988,PUNTOS DE MEDIDA URBANOS,67030,Bulevar JosÈ Prat - Ladera de los Almendros-Bulevar Indalecio Prieto,447228238104215.00,447162443617367.00,31,9.7975845308873,2.1404480258209
5917,PUNTOS DE MEDIDA URBANOS,44049,C/. Alcal· - Urquiza-Virgen del Sagrario,44763289917507.00,445276463135815.00,31,5.2055246655776,-1.3229917736486
10004,PUNTOS DE MEDIDA URBANOS,44050,C/. Alcal· - Urquiza-Gutierre de Cetina,447633685316482.00,445299477681989.00,31,4.0125215762918,1.2993255661206
9871,PUNTOS DE MEDIDA URBANOS,79037,C/. PrÌncipe Carlos - Vicente Blasco Ib·Òez-Americo Castro,448294664177306.00,444541471491097.00,31,5.4349775688272,1.3080956447638
9870,PUNTOS DE MEDIDA URBANOS,79038,C/. PrÌncipe Carlos - MarÌa Tudor-Isabel de Valois,448313832033524.00,444287507385611.00,31,6.4723162641511,-1.8170276488533
9875,PUNTOS DE MEDIDA URBANOS,79041,Av. Niceto Alcal· Zamora - MarÌa Tudor-Isabel de Valois,448348683966409.00,444546143110729.00,31,-2.6861581749235,-8.3334583529635
9872,PUNTOS DE MEDIDA URBANOS,79039,Ana de Austria - Isabel Clara Eugenia-PrÌncipe Carlos,448315707280824.00,444488279958846.00,31,4.2158402653988,-5.8361142156656
9873,PUNTOS DE MEDIDA URBANOS,79040,Ana de Austria - Princesa …boli-PrÌncipe Carlos,448293890568361.00,444327936989469.00,31,-4.1130533841811,4.5778133455122
10006,PUNTOS DE MEDIDA URBANOS,44048,C/. Alcal· - Hnos. Machado-Lago Constanza,447621988195369.00,445036655350462.00,31,-4.0637878659577,-3.1906035286725
10009,PUNTOS DE MEDIDA URBANOS,47045,C/. Arturo Soria - Eladio LÛpez Vilches-Av. San Luis,448094099241493.00,443467768753152.00,31,-2.0016080206263,-4.5947868315903
10005,PUNTOS DE MEDIDA URBANOS,44047,C/. Alcal· - Cjal. Juilo GÛmez-Hnos. Machado,447622342814653.00,445016260502554.00,31,-6.1488622418454,1.7398826844016
9982,PUNTOS DE MEDIDA URBANOS,68009,Av. EntrevÌas - Hernandez Mas-La Mancha,447052132563163.00,443360792204417.00,31,5.9267611551937,-1.3016693247676
9857,PUNTOS DE MEDIDA URBANOS,47041,Acceso Cuesta Sagrado CorazÛn -O - M-30-Cuesta Sagrado CorazÛn,448007097198346.00,443508711749204.00,31,3.3725720347869,-7.6531193227886
9994,PUNTOS DE MEDIDA URBANOS,57025,C/. Jardines de Aranjuez - Jardines de Aranjuez-Paseo Alameda de Osuna,447852295125809.00,44910452676994.00,31,-1.6788999409692,4.3924487359777
10002,PUNTOS DE MEDIDA URBANOS,57023,C/. Playa de Riazor - Arroyomolino-Av. LogroÒo,448091705513092.00,450730707235899.00,31,5.6129693572683,1.3720505129217
10010,PUNTOS DE MEDIDA URBANOS,47046,Av. San Luis - Golfo de Salonica-Arturo Soria,448099316248473.00,443471418211439.00,31,1.1493996052512,-3.0465989137628
9874,PUNTOS DE MEDIDA URBANOS,79013,Niceto Alcal· Zamora - Vicente Blasco Ib·Òez-AmÈrico Castro,448327691658087.00,444824929933973.00,31,-1.8910970740964,-4.3623740702598
9867,PUNTOS DE MEDIDA URBANOS,79034,Av. Alcalde Conde Mayalde - Isabel Clara Eugenia-PrÌncipe Carlos,44828670012529.00,444873270315827.00,31,8.2154719949136,2.2560958628100
9868,PUNTOS DE MEDIDA URBANOS,79035,C/. PrÌncipe Carlos - Alcalde Alvarez de Villaamil-Alcalde Redondo AceÒa,448259811626242.00,444894745752651.00,31,-3.2544669044576,8.0476894233594
9869,PUNTOS DE MEDIDA URBANOS,79036,C/. PrÌncipe Carlos - Octavio Paz-Luis Jimenez de Asua,448283117669564.00,444651918688954.00,31,3.6469974711729,-1.0925253108825
9866,PUNTOS DE MEDIDA URBANOS,79033,Av. Alcalde Conde Mayalde - Princesa de Eboli-PrÌncipe Carlos,448258824609652.00,444662653500663.00,31,-3.2730775234168,-8.0856769422098
9950,PUNTOS DE MEDIDA URBANOS,67041,Arroyo Media Legua - Santa Irene-Acceso O¬¥Donnell,447423763440202.00,444874327997587.00,31,5.0355232582039,1.4553178768130
9948,PUNTOS DE MEDIDA URBANOS,67032,Camino Vinateros - Corregidor Jose Pasamonte-Marroquina,447359560904182.00,445050572058456.00,31,-4.0644115889227,3.1909538646979
9947,PUNTOS DE MEDIDA URBANOS,67033,Camino Vinateros - Marroquina-Corregidor Jose Pasamonte,447359041033306.00,445087553213385.00,31,-4.0564145544457,2.9801410680809
6987,PUNTOS DE MEDIDA URBANOS,67031,Bulevar JosÈ Prat - Bulevar Indalecio Prieto-Ladera de los Almendros,447235068831384.00,447161700556904.00,31,-7.9873494574638,-2.5898152434689
9953,PUNTOS DE MEDIDA URBANOS,67038,Corregidor Diego Valderrabano - Primavera de Praga-Dr. Garcia Tapia,447398248956259.00,444284939601611.00,31,3.7226322934613,1.1110901712820
9945,PUNTOS DE MEDIDA URBANOS,67034,Camino Vinateros - Arroyo Media Legua-Arroyo Belincoso,447373730958443.00,44464620074002.00,31,1.7280541703592,3.9939335706614
9946,PUNTOS DE MEDIDA URBANOS,67035,Camino Vinateros - Arroyo Belincoso-Arroyo Media Legua,447374591425654.00,44466107334162.00,31,-5.6981272069873,1.3689821393753
9927,PUNTOS DE MEDIDA URBANOS,67036,Camino Vinateros - M-30-Corregidor Diego Valderrabano,447376134299901.00,444076870110993.00,31,1.8636677078176,6.0037502315742
9921,PUNTOS DE MEDIDA URBANOS,67037,Camino Vinateros - Corregidor Diego Valderrabano-Manuel Machado,447376338105566.00,444222603942506.00,31,3.9930162131022,-2.3367860649985
9951,PUNTOS DE MEDIDA URBANOS,67042,Arroyo Media Legua - Dr. Garcia Tapia-Acceso O¬¥Donnell,447405204720576.00,444726835840617.00,31,1.2612706588131,2.9423355553859
6908,PUNTOS DE MEDIDA URBANOS,67043,Av. Moratalaz - Arroyo Pilillas-Arroyo Media Legua,447323465330063.00,444593550539911.00,31,1.4949872960190,4.9154568398227
9949,PUNTOS DE MEDIDA URBANOS,67044,Av. Moratalaz - Arroyo Media Legua-Arroyo Pilillas,447324559606099.00,444528722963575.00,31,-7.2543774715906,1.5957836576330
9955,PUNTOS DE MEDIDA URBANOS,67039,Salida M-30 - M-30-Corregidor Diego Valderrabano,44741365131879.00,44418481015385.00,31,4.7754289667257,1.0785383296780
9954,PUNTOS DE MEDIDA URBANOS,67040,Doctor GarcÌa Tapia - Arroyo Media Legua-FÈlix Rodriguez,447401899272821.00,444444682310812.00,31,4.5965028125932,-1.1147259613643
6891,PUNTOS DE MEDIDA M-30,10NC76PM01,10NC76PM01,447204763304125.00,44297542320605.00,31,4.3569682947567,9.4513528393561
6894,PUNTOS DE MEDIDA M-30,10XC18PM01,10XC18PM01,447241498464837.00,443325249362486.00,31,-6.0831008106892,1.4519922161712
6892,PUNTOS DE MEDIDA M-30,10XC82PM01,10XC82PM01,447185330218146.00,442929495959317.00,31,3.7455398685834,9.1392307358970
6875,PUNTOS DE MEDIDA M-30,12NC63PM01,12NC63PM01,447142611645313.00,441514864920006.00,31,-2.5217968831031,-6.2690056852455
1026,PUNTOS DE MEDIDA M-30,14RM32PM01,14RM32PM01,447204311767954.00,440495230118295.00,31,-4.5062442310203,9.6908037827116
6893,PUNTOS DE MEDIDA M-30,10NC18PM01,10NC18PM01,447243761106236.00,443289245847097.00,31,2.0523498772057,6.5300608758452
1024,PUNTOS DE MEDIDA M-30,14RL30PM01,14RL30PM01,447195324318121.00,440316594335128.00,31,-2.7497558203510,-5.9214725999609
1023,PUNTOS DE MEDIDA M-30,14RN01PM01,14RN01PM01,447197860949432.00,44020388451686.00,31,5.4612973722037,-1.2984765401029
7120,PUNTOS DE MEDIDA M-30,14RN27PM01,14RN27PM01,447183085812105.00,440110696711188.00,31,-3.9707033042271,-8.6762732319190
1022,PUNTOS DE MEDIDA M-30,14RR28PM01,14RR28PM01,447189336337108.00,440426352430588.00,31,3.8924045511725,-3.6568230725712
1027,PUNTOS DE MEDIDA M-30,14VE04PM01,14VE04PM01,44720477592252.00,440417287833409.00,31,-3.8425944976983,-2.6728913765313
6858,PUNTOS DE MEDIDA M-30,15NL09PM01,15NL09PM01,447235484492389.00,439800883593493.00,31,6.5710867962162,2.0316591834130
1040,PUNTOS DE MEDIDA M-30,16RC01PM01,16RC01PM01,447308852229521.00,438727390225056.00,31,-3.9543447097706,-5.4512185961098
1039,PUNTOS DE MEDIDA M-30,16RE18PM01,16RE18PM01,447295950366264.00,43875423734508.00,31,2.1365706334726,6.6628617026659
3839,PUNTOS DE MEDIDA M-30,PM31263,PM31263,44704661321951.00,441413407945269.00,31,4.2347603985286,-7.2698496878470
6777,PUNTOS DE MEDIDA M-30,PM31264,PM31264,447047231601315.00,441405869690026.00,31,-5.4656589688919,-1.3038025759245
3545,PUNTOS DE MEDIDA M-30,04FL92PM01,04FL92PM01,447370257262646.00,437229222499128.00,31,5.7776549491021,1.7012454709896
3542,PUNTOS DE MEDIDA M-30,04FT14PM01,04FT14PM01,447411610899705.00,437979391132118.00,31,3.7129126632935,-1.9313855241779
5428,PUNTOS DE MEDIDA URBANOS,43017,Av.IlustraciÛn O-E  - Ginzo de Limia-Arzobispo Morcillo,448183957731362.00,440693227551848.00,31,-3.1358264444583,-9.4258210347126
5481,PUNTOS DE MEDIDA URBANOS,60035,Ju·n RamÛn JimÈnez S-N - JosÈ L·zaro -Alberto Alcocer,447900498885696.00,441871767177703.00,31,-3.2353081854491,-7.3178989087560
5503,PUNTOS DE MEDIDA URBANOS,60060,P∫de la Habana S-N - Hnos.PinzÛn-Pl.Quito,447803086286744.00,441685285257941.00,31,4.6058889950716,1.3294597951588
5504,PUNTOS DE MEDIDA URBANOS,60061,Padre Dami·n N-S - Rafael Salgado-Concha Espina,447847422485674.00,441887290315074.00,31,-4.0143698423560,-4.6168689589902
5518,PUNTOS DE MEDIDA URBANOS,61004,Caidos DivisiÛn Azul O-E - Duque de Pastrana-Av.Pio XII,44800817939825.00,442809797852495.00,31,-1.1994482459421,3.9687858440730
3837,PUNTOS DE MEDIDA M-30,PM30461,PM30461,447766019918353.00,444416877898805.00,31,5.2308455690474,-1.3513878875962
4463,PUNTOS DE MEDIDA URBANOS,22010, CristÛbal Bordiu O-E - Modesto Lafuente-AgustÌn de Bethancourt,447735006678009.00,441150811998599.00,31,-6.1072683639383,-1.8246246925812
5728,PUNTOS DE MEDIDA URBANOS,63041,Alonso Cano S-N - Maudes-Raimundo Fdez.Villaverde,447766043521361.00,440985278409102.00,31,-6.1555215747995,-1.7175544046463
3417,PUNTOS DE MEDIDA URBANOS,90001,P∫ Imperial O-E - JemenuÒo-P∫ Pontones,447321613260731.00,439318937121654.00,31,-3.0916320784025,-9.2624688243850
6081,PUNTOS DE MEDIDA URBANOS,47020,Av. San Luis - Arturo Soria-Condado de TreviÒo,448126176995025.00,443214716698761.00,31,1.0991798869107,2.4475176177789
6366,PUNTOS DE MEDIDA URBANOS,59012,C/. Hermanos de Pablo    - Virgen del Portillo-JosÈ del Hierro,447684796402558.00,445230103231024.00,31,5.1834483706823,-1.3107523472926
6387,PUNTOS DE MEDIDA URBANOS,59401,C/. Emilio Gastesi Fern·ndez - Prudencio √Ålvaro-JosÈ del Hierro,447667139094206.00,445122158466622.00,31,-4.1110412701650,-4.0118227970194
6388,PUNTOS DE MEDIDA URBANOS,64001,Av. Canillejas a Vic·lvaro - Alcal·-NÈctar,447717975027622.00,4478792423105.00,31,-5.4788013617419,-1.3303210617887
6122,PUNTOS DE MEDIDA URBANOS,67015,C/. Arroyo Media Legua - Av. Doctor GarcÌa Tapia-Camino Vinateros,447380911771773.00,444528321545409.00,31,-7.3680271453858,2.0429038456464
5358,PUNTOS DE MEDIDA URBANOS,88002,Av. Ensanche de Vallecas Carriles centrales - P.P.- EntrepeÒas,446899777213274.00,448469932525701.00,31,-8.7352469856104,-2.8789416483448
5383,PUNTOS DE MEDIDA URBANOS,89011,Av. Suertes - M-45-Jose Gutierrez,446904939515395.00,44896110157711.00,31,-1.4598037758921,-3.8596739227375
5739,PUNTOS DE MEDIDA URBANOS,63052,Raimundo Fdez.Villaverde O-E(Lateral) - Orens-P∫Castellana,447773716399804.00,441145320651532.00,31,-3.9984013124058,4.8128317801382
6905,PUNTOS DE MEDIDA M-30,05TL00PM02,05TL00PM02,447262277470361.00,445057719104065.00,31,1.8911273491858,6.1035345091383
6883,PUNTOS DE MEDIDA M-30,90ET58PM01,90ET58PM01,447072376015013.00,441756538368957.00,31,-1.9803058965671,6.2910787141351
6640,PUNTOS DE MEDIDA M-30,PM10013,PM10013,448156188531519.00,442972371563023.00,31,3.1085043771109,-6.7454672966436
6641,PUNTOS DE MEDIDA M-30,PM10021,PM10021,448153142366198.00,442975710559461.00,31,9.6447048419933,-3.1879941183688
6642,PUNTOS DE MEDIDA M-30,PM10091,PM10091,448102082575089.00,442944806888297.00,31,-2.1919596321294,5.0139278469498
3856,PUNTOS DE MEDIDA URBANOS,2001,Dr. Esquerdo N-S - O¬¥Donnell-Ibiza,447473553394919.00,44333737930329.00,31,4.5518286084253,1.3232868284697
6639,PUNTOS DE MEDIDA M-30,PM10001,PM10001,448279034786273.00,443217592441279.00,31,4.1892056071290,-6.1154419255675
3797,PUNTOS DE MEDIDA M-30,PM10005,PM10005,448278933412832.00,44320670839277.00,31,-4.2100410250566,6.3463899755266
3817,PUNTOS DE MEDIDA M-30,PM104841,PM104841,44772973818616.00,444131483627183.00,31,1.2105049517341,-2.8231575704919
3828,PUNTOS DE MEDIDA M-30,PM40754,PM40754,447484110976931.00,443658643523103.00,31,5.9052215946916,1.6702989347935
3826,PUNTOS DE MEDIDA M-30,PM40755,PM40755,447454330452774.00,444554795761442.00,31,2.4948620632912,-5.5277056545410
3703,PUNTOS DE MEDIDA M-30,PM41302,PM41302,446959561342412.00,441138677312528.00,31,-4.9293749200137,1.2282184446712
3704,PUNTOS DE MEDIDA M-30,PM41351,PM41351,446917639566056.00,441169162728139.00,31,1.5978925744179,-3.5264061963861
6810,PUNTOS DE MEDIDA M-30,PM43202,PM43202,448180188080255.00,444177154477218.00,31,-2.3200760734513,5.8445134219151
6933,PUNTOS DE MEDIDA M-30,PM43221,PM43221,448192463385085.00,443112009475762.00,31,-1.5450433595945,3.4266973868307
7015,PUNTOS DE MEDIDA M-30,PM43223,PM43223,44820121602351.00,443133253651413.00,31,4.3285337816378,-1.2646293368910
1047,PUNTOS DE MEDIDA M-30,03FL08PM01,03FL08PM01,447478195005402.00,438955735821648.00,31,6.7966026981969,2.1264528426065
1046,PUNTOS DE MEDIDA M-30,03FL08PM02,03FL08PM02,44747356735301.00,438952618884673.00,31,-5.6035207007872,-1.5680036830102
6836,PUNTOS DE MEDIDA M-30,03FL20PM01,03FL20PM01,447461718559301.00,438913098958216.00,31,6.1392806204706,1.8515959344541
1010,PUNTOS DE MEDIDA M-30,03FL56PM01,03FL56PM01,447442527587892.00,438597137935133.00,31,1.3415338304294,-4.3632617680372
6899,PUNTOS DE MEDIDA M-30,04TL40PM02,04TL40PM02,447303353782532.00,444712635478917.00,31,4.7164594632766,-1.0191750449654
6901,PUNTOS DE MEDIDA M-30,04TL40PM03,04TL40PM03,447302998758226.00,444708020162943.00,31,1.9192276549923,-4.9054977663207
1028,PUNTOS DE MEDIDA M-30,14RC10PM01,14RC10PM01,447221501534991.00,44024463022687.00,31,-3.8930472365436,8.7391133389614
1030,PUNTOS DE MEDIDA M-30,14RE35PM01,14RE35PM01,447209825714178.00,440172461387047.00,31,-1.9040683325296,4.8024591881742
1029,PUNTOS DE MEDIDA M-30,14RH25PM01,14RH25PM01,447219238127472.00,44011317647312.00,31,-1.3629017818645,-3.0051171361770
6867,PUNTOS DE MEDIDA M-30,14RL11PM01,14RL11PM01,447198390169035.00,440218763618912.00,31,-2.2703175384025,7.0692189795868
6850,PUNTOS DE MEDIDA M-30,15NL71PM01,15NL71PM01,447264824441039.00,439322329453007.00,31,-2.2564350873331,-7.0085275019142
6851,PUNTOS DE MEDIDA M-30,15RV50PM01,15RV50PM01,447266138375321.00,439324392470996.00,31,-6.1494019874554,1.8538692245356
1018,PUNTOS DE MEDIDA M-30,18XC82PM01,18XC82PM01,44750359651977.00,438626072197928.00,31,-2.1361382890061,-4.6732713003510
4042,PUNTOS DE MEDIDA URBANOS,9028,Narvaez S-N - Duque de Sesto-Jorge Juan,447508587377124.00,442774222693917.00,31,1.7852802894107,5.7499137294175
6869,PUNTOS DE MEDIDA M-30,14RA02PM01,14RA02PM01,447194153106742.00,440521167721082.00,31,-6.0023945711254,1.7813450403344
1025,PUNTOS DE MEDIDA M-30,14RA15PM01,14RA15PM01,447204800431968.00,440505050283578.00,31,-2.7885709437148,-6.3052002130831
7040,PUNTOS DE MEDIDA URBANOS,9035, Alcala O-E - Pte. Ventas-Av.Daroca,447605737054204.00,444091256201918.00,31,1.7217261840137,-4.4270691248886
4057,PUNTOS DE MEDIDA URBANOS,10009,Ibiza. 25 E-O - Maiquez-Narvaez,447461169128236.00,442824647241499.00,31,3.0723856334679,-6.7685742690842
4066,PUNTOS DE MEDIDA URBANOS,10022, Menendez Pelayo S-N - Pl. NiÒo Jes˙s -Pio Baroja,44738850614089.00,442721130198037.00,31,1.1509270924637,3.8111226685189
4046,PUNTOS DE MEDIDA URBANOS,9032, Maiquez. 2 S-N - Duque de Sesto-Jorge Juan,447513439373421.00,443043439276156.00,31,3.4622191573282,-7.5133514758214
4047,PUNTOS DE MEDIDA URBANOS,9033,Jorge Juan O-E - Fernan Gomez-Maiquez,447516009536247.00,443036177519462.00,31,-3.9082480466024,-1.0745521468394
5096,PUNTOS DE MEDIDA URBANOS,11014,Embajadore N-S - Jaime el Conquistador-Divino VallÈs,447235040383702.00,440937190569806.00,31,2.4789862137249,6.1585872511108
3729,PUNTOS DE MEDIDA URBANOS,12005,Palos de la Frontera E-O - P∫ Delicias -Batalla del Salado,447293172564173.00,441215386958369.00,31,-7.3629958789084,2.3481442652335
3758,PUNTOS DE MEDIDA URBANOS,13002,Juan de Mena O-E - P∫ del Prado-Alfonso XII,447451671546428.00,441586984480239.00,31,-2.3300393388152,-5.0662163880169
3691,PUNTOS DE MEDIDA URBANOS,13028, P∫ del Prado N-S - Pl. Platerias-Gta. Carlos V,447393181857817.00,441294483786084.00,31,1.7575097906592,-4.0255385458311
4196,PUNTOS DE MEDIDA URBANOS,13056,PeÒuelas N-S - Carvajales-Sta.M™Cabeza,447251727976935.00,440602758954849.00,31,4.8922723877912,-1.3973439846785
4197,PUNTOS DE MEDIDA URBANOS,13057,P∫ Delicias S-N - Tortosa-Mendez Alvaro,447329259972491.00,441279784494354.00,31,1.7911059883298,4.1003074044385
4233,PUNTOS DE MEDIDA URBANOS,14033,Labrador O-E - Martin Vargas-Embajadores,447283660880751.00,440599067240821.00,31,-2.8679349281769,-8.7073917695929
4282,PUNTOS DE MEDIDA URBANOS,16003,Alamo S-N - General  Mitre-Reyes,447522885133977.00,43996275684853.00,31,-1.0848058419067,3.5711699942326
4309,PUNTOS DE MEDIDA URBANOS,16037,Gran Via N-S - Peligros-Caballero de Gracia,447479590305363.00,440741370293116.00,31,3.7440141610890,9.0787358974736
4310,PUNTOS DE MEDIDA URBANOS,16038,Hortaleza. 26 O-E - Infantas-San Marcos,447494141884394.00,440683312857138.00,31,-6.2654672542124,-1.3969784787211
4314,PUNTOS DE MEDIDA URBANOS,16043,Bailen S-N - Lateral entrada cruce G.10,447492273093444.00,439644771629766.00,31,4.5495174002770,1.0174908821182
4315,PUNTOS DE MEDIDA URBANOS,16044, Cuesta San Vicente E-O - Bailen-Gran Via,447500319929713.00,439559925380798.00,31,1.3689198868505,-3.1430866758297
3637,PUNTOS DE MEDIDA URBANOS,98021,CTRA.DE BOADILLA E-O (N V-CARABIAS),447252118338051.00,435166617062388.00,31,4.6841377455225,1.3186857530031
6464,PUNTOS DE MEDIDA URBANOS,65401,Giro Fuente Carrantona-Ciudad Encantada - Fuente Carrantona-JosÈ BergamÌn,447373565088659.00,44668600141447.00,31,-5.0680663175501,-1.2310011034709
6214,PUNTOS DE MEDIDA URBANOS,67002,C/. Villablanca - Minerva-Gran Via del Este,447299022955955.00,449484850487628.00,31,-2.2194453360835,-4.8894607201592
6439,PUNTOS DE MEDIDA URBANOS,67022,Av. Doctor GarcÌa Tapia - Fondo de Saco Av. Dr. GarcÌa Tapia-Arroyo de la Media Legua,447392863591229.00,444692273834449.00,31,3.6121612794749,-7.8997316123033
6485,PUNTOS DE MEDIDA URBANOS,68003,Av. EntrevÌas - Concejo de Teverga-Timoteo Perez Rubio,447114894458341.00,443124250224895.00,31,-1.6075307367582,-5.2319868359168
6405,PUNTOS DE MEDIDA URBANOS,64020,Av. Arcentales - Albadalejo-Av. Canillejas a Vic·lvaro,447634449762391.00,448102645051309.00,31,3.9921530883503,-1.1980168281171
6673,PUNTOS DE MEDIDA M-30,PM10942,PM10942,447312436590452.00,443560636368363.00,31,1.4064453818255,-3.6670093060399
6613,PUNTOS DE MEDIDA URBANOS,79017,C/. MarÌa de Portugal - Leonor de Austria-Francisco Pi y Margall,448315087978671.00,443781306163481.00,31,-4.8701668052349,-1.1440833452743
5201,PUNTOS DE MEDIDA URBANOS,82003,C/. San Jaime - Sierra Tornavaca-Pilas,447019531140192.00,446781740213888.00,31,4.3479070587074,-6.2761968712991
5246,PUNTOS DE MEDIDA URBANOS,49033,NTRA.SRA.LUZ N-S(ESPINAR-GRAL.RICARDOS),447073822920373.00,437044439438907.00,31,-1.6168958322645,-5.1564460346882
5124,PUNTOS DE MEDIDA URBANOS,51026,VIA CARPETANA N-S (LEON V-L.FEITO),447161462421445.00,437028095359487.00,31,4.0431322200284,-6.9787108019383
5145,PUNTOS DE MEDIDA URBANOS,58012,CARCASTILLO SO-NE(BESOLLA-C.V.LEGANES),447039946180835.00,437902648667795.00,31,-3.6885373150922,1.0896138253365
4045,PUNTOS DE MEDIDA URBANOS,9031,Principe de Vergara N-S - Jorge Juan-Alcala,447519585242381.00,442396441835348.00,31,1.6461120809456,5.3342752606371
5095,PUNTOS DE MEDIDA URBANOS,11013,Caceres O-E - Embajadores-Batalla del Salado,447245672932551.00,440909332113468.00,31,-2.4596280570669,-5.4037479004730
4308,PUNTOS DE MEDIDA URBANOS,16036,Gran Via N-S - Peligros-Caballero de Gracia,447476853504138.00,440800176996822.00,31,-2.2571941221632,7.0473014387451
4366,PUNTOS DE MEDIDA URBANOS,17035,Quintana E-O - Ferraz-Pintor Rosales,447564280861331.00,43914858208495.00,31,-4.7149961966645,-1.1328813644169
4367,PUNTOS DE MEDIDA URBANOS,17036,Luisa Fernanda E-O - Mendizabal-Ferraz,447541558093139.00,439421110635918.00,31,-2.1380310461401,5.3380401589600
4417,PUNTOS DE MEDIDA URBANOS,19016,Sagasta. 2 O-E - Gta. Bilbao-Mejia Lequerica,447580113820542.00,440594948529582.00,31,-8.8635208138334,2.9032646800596
3673,PUNTOS DE MEDIDA URBANOS,21029, Zurbano. 17 N-S - Rafael Calvo-Eduardo Dato,447627423662349.00,441303580024896.00,31,-1.2521381013944,4.1199141828405
3674,PUNTOS DE MEDIDA URBANOS,21030,Eduardo Dato. 12 E-O - Gta. Ruben Dario-Alfonso X,447624953341827.00,441406764418907.00,31,-2.1422539932615,-5.3801044497949
6979,PUNTOS DE MEDIDA URBANOS,23008,San Francisco de Sales S-N - Guzm·n el Bueno-Santander,447736916371653.00,439721580422842.00,31,-7.1647411086144,1.5906771789242
4473,PUNTOS DE MEDIDA URBANOS,23009,Guzm·n el Bueno N-S - G.Asensio Cabanillas-S.Francisco Sales,447742736186219.00,439686055962075.00,31,8.8424023443906,2.0596766361581
3395,PUNTOS DE MEDIDA URBANOS,23011,Santander S-N - Ju·n VigÛn-San Francisco de Sales,44773587441796.00,439933565477338.00,31,-4.3291171748984,-8.5151858777559
4608,PUNTOS DE MEDIDA URBANOS,33025,Mauricio Legendre N-S - M-30 -Viejas,448159222252981.00,442202151507915.00,31,2.0936465417494,-6.6226033514598
4609,PUNTOS DE MEDIDA URBANOS,33026, Salida Cocher E-O - E.M.T.-Mauricio Legendre,448149109509197.00,442212749964882.00,31,1.6067352695419,-3.5030950485182
4610,PUNTOS DE MEDIDA URBANOS,33027,Viejas O-E - P∫Castellana-Mauricio Legendre,448151670842652.00,442068509549892.00,31,-5.3393353010975,1.1595941824382
4612,PUNTOS DE MEDIDA URBANOS,33029, Salida E.M.T. E-O - E.M.T.-Mauricio Legendre,44810684007976.00,442149939267229.00,31,6.8346282839342,-1.8941109250235
4613,PUNTOS DE MEDIDA URBANOS,33030,(T√ÅCTICO)Manuel Caldeiro O-E - P∫Castellana - Mauricio Legendre,448106378981766.00,442082243039111.00,31,-1.5248394812489,-3.2949730205934
7142,PUNTOS DE MEDIDA URBANOS,33401,Monforte de Lemos E-O Giro - Monforte de Lemos-Puentecesures,448143111567414.00,441085306247635.00,31,5.8319170108436,-1.2570503242646
4638,PUNTOS DE MEDIDA URBANOS,34023,CorazÛn de Maria S-N - Santa Rita-Ramos CarriÛn,447764410364572.00,443563156066374.00,31,2.4875437131942,5.4988212970390
9968,PUNTOS DE MEDIDA URBANOS,34024,Lopez de Hoyos O-E - Eugenio Salazar-Marcenado,447755514701522.00,443026826476057.00,31,-1.8232305578271,4.6532622698883
4639,PUNTOS DE MEDIDA URBANOS,34025,CorazÛn de Maria S-N - Ramos CarriÛn-Luis Salazar,447775465717543.00,443587783063452.00,31,3.6462470208963,-7.9540002930811
10040,PUNTOS DE MEDIDA URBANOS,34026,CorazÛn de Maria N-S - Luis Salazar-Ramos CarriÛn,447781318915319.00,443589190248941.00,31,-1.7464344270403,-5.6515416221659
10039,PUNTOS DE MEDIDA URBANOS,34027,Clara del Rey S-N - Luis Salazar -Ramos CarriÛn,447782331949564.00,443482555065275.00,31,1.4551978720780,4.7774689700603
4640,PUNTOS DE MEDIDA URBANOS,34028,Ramos CarriÛn E-O - CorazÛn de Maria -Clara del Rey,447772656968866.00,443531560043545.00,31,3.9459603153725,1.8011610179948
3414,PUNTOS DE MEDIDA URBANOS,35035,Av.Bonn E-O - Av.de la Paz-Av.Brasilia,447685198743605.00,444143490355269.00,31,2.1475636624510,-6.8204186458014
4678,PUNTOS DE MEDIDA URBANOS,35044,Av.Toreros S-N - Alcala-Av.Toreros,447613489175477.00,443989592879749.00,31,4.0352866061232,3.5269624823745
3442,PUNTOS DE MEDIDA URBANOS,35045,MartÌnez Izquierdo O-E - Pilar de Zaragoza-Villafranca,447642905959637.00,443524436825969.00,31,-8.3021837248776,-2.7078565816127
6815,PUNTOS DE MEDIDA M-30,PM12572,PM12572,448087883844438.00,436928448561841.00,31,-4.5123630015979,9.6884728896910
5951,PUNTOS DE MEDIDA URBANOS,45005,C/. Hermanos GarcÌa Noblejas - Ascao-Santo Domingo Savio,447611226609967.00,446361309267231.00,31,-1.6950784024513,5.5494672937522
5952,PUNTOS DE MEDIDA URBANOS,45006,C/. Hermanos GarcÌa Noblejas - Braulio GutiÈrrez-Santo Domingo Savio,447593518205019.00,446435445497388.00,31,-4.3315972486567,-1.2802436126855
5953,PUNTOS DE MEDIDA URBANOS,45007,C/. Hermanos GarcÌa Noblejas - Emilio MuÒÛz-Miguel Fleta,447593964326756.00,446441554485762.00,31,7.0021987533872,1.5350314340362
5948,PUNTOS DE MEDIDA URBANOS,45002,C/. Hermanos GarcÌa Noblejas - Albasanz-Ascao,447635817603354.00,446221646161616.00,31,-1.7867456755592,4.1424708517295
5949,PUNTOS DE MEDIDA URBANOS,45003,C/. Hermanos GarcÌa Noblejas - Vital Aza-Ascao,447627733424138.00,446247923400419.00,31,5.6164467237700,-1.3561238161604
5950,PUNTOS DE MEDIDA URBANOS,45004,C/. Hermanos GarcÌa Noblejas - Vital Aza-Ascao,447628257552238.00,446257796604138.00,31,-2.1702207402054,4.7705778260732
5965,PUNTOS DE MEDIDA URBANOS,45019,C/. Braulio GutiÈrrez - JosÈ Arcones Gil-Hermanos GarcÌa Noblejas,447586028916055.00,446404964056093.00,31,-2.7252386927718,6.8402213702144
5992,PUNTOS DE MEDIDA URBANOS,45048,Pl. Alsacia - Hermanos GarcÌa Noblejas-Nicol·s SalmerÛn,447452424641255.00,44717777814346.00,31,-8.2210440265091,-2.6809510733637
6016,PUNTOS DE MEDIDA URBANOS,46008,C/. Arturo Soria - UlÌses-Belisana,447884354817529.00,444400385195327.00,31,4.0463933431289,-3.3997744876354
6044,PUNTOS DE MEDIDA URBANOS,46039,C/. Arturo Soria - Lorenzo Solano Tendero-Estrecho de Mesina,447839323639025.00,444687626274021.00,31,3.9733300343442,-3.1624925651250
6075,PUNTOS DE MEDIDA URBANOS,47014,C/. Caleruega  - Caleruega-Arturo Soria,448150959588584.00,443493619194599.00,31,-4.1229325692676,5.1927609539810
6100,PUNTOS DE MEDIDA URBANOS,47040,C/. Arturo Soria  - Emeterio CastaÒos-Manuel Uribe,44796336239993.00,443722155868006.00,31,-1.1923379626147,3.1530421440392
6132,PUNTOS DE MEDIDA URBANOS,52410,C/. Maruja GarcÌa Romero - Maruja GarcÌa Romero-El Bosco,447301414657786.00,444564397916385.00,31,-5.6088933433854,-1.5547871875382
6156,PUNTOS DE MEDIDA URBANOS,53026,Av. Daroca  - Lago Constanza-Trece Rosas,44755425339459.00,445275369745565.00,31,-5.4273376531077,1.5578598257148
6179,PUNTOS DE MEDIDA URBANOS,53401,Av. MarquÈs de Corbera - Santa Prisca-Teresa S·inz Heredia,44754668434927.00,4448528099399.00,31,-6.4941936419509,1.9752339660883
3696,PUNTOS DE MEDIDA URBANOS,54013,P∫. Artilleros  - Villardondiego-Camino Viejo de Vic·lvaro,447316532552844.00,448414653446229.00,31,-9.6332701252569,-3.2101812700627
6227,PUNTOS DE MEDIDA URBANOS,55007,Ctra. Canillas - Torquemada-Emigrantes,447979507056568.00,446044382952625.00,31,-6.5406160777634,1.4764526034827
3656,PUNTOS DE MEDIDA URBANOS,55031,Entrada desde M40 oeste - M-40- Av. los Andes,447907188094289.00,447629713007339.00,31,6.1440168456669,1.7911030248328
3657,PUNTOS DE MEDIDA URBANOS,55032,Entrada desde M40 este - M-40- Av. los Andes,447892547747299.00,447894941598262.00,31,6.7932083007417,1.9210084271418
6248,PUNTOS DE MEDIDA URBANOS,55033,C/. Asura - Asura-Moscatelar,447881826786261.00,444689807390909.00,31,9.6123369944283,2.1514157550300
6249,PUNTOS DE MEDIDA URBANOS,55034,C/. Asura - Carril del Conde-Moscatelar,447895811786117.00,444593291884469.00,31,-4.0296503049759,2.8614259893330
6250,PUNTOS DE MEDIDA URBANOS,55035,C/. Liceo - Liceo-Silvano,447888237585317.00,445592434645386.00,31,2.4977260614131,-7.8417643024414
3658,PUNTOS DE MEDIDA URBANOS,55036,C/. Silvano - Mosqueda-Haendel,447949476285828.00,447022572044088.00,31,-5.9399132936156,1.6986365357111
6252,PUNTOS DE MEDIDA URBANOS,55038,Av. Consejo de Europa - Consejo de Europa-M-40,447912729380681.00,4478278725857.00,31,-4.4426135075247,-6.8446761743269
6271,PUNTOS DE MEDIDA URBANOS,55401,C/. Carril del Conde  - Carril del Conde-Ctra. Canillas,447958077187285.00,444747264611839.00,31,-7.8206203374343,2.5252298477509
6272,PUNTOS DE MEDIDA URBANOS,55402,C/. Ricardo San Juan - Ricardo San Juan-Ctra. Canillas,447966541552615.00,444764132424952.00,31,2.2950468317326,-7.2523065645157
6297,PUNTOS DE MEDIDA URBANOS,56015,C/. Ayacucho - Mar Adriatico-Valdetorres del Jarama,448031720587631.00,4457959356715.00,31,2.3408177541211,7.4074784425495
6299,PUNTOS DE MEDIDA URBANOS,56017,C/. Ayacucho - C.O.E.-Mar Adri·tico,448029349442835.00,446138976357384.00,31,-4.1257312022575,-1.2249248780443
6300,PUNTOS DE MEDIDA URBANOS,56018,Ctra. Acceso EstaciÛn de Hortaleza - Monovar-Virgen del Carmen,448080201290019.00,444515462289664.00,31,5.2161902096058,-1.2577033905267
6292,PUNTOS DE MEDIDA URBANOS,56010,Av. San Luis  - Ctra. Acceso EstaciÛn de Hortaleza-Lorca,448048995947962.00,444473512944872.00,31,6.2499486105721,1.7621577695343
6293,PUNTOS DE MEDIDA URBANOS,56011,Av. San Luis - LuÌs Buitrago-Pl. Santos de la Humosa,448063265829242.00,444962961198348.00,31,-3.9576370907627,-8.9854197299292
6318,PUNTOS DE MEDIDA URBANOS,56038,C/. Gregorio S·nchez Herr·ez - M40-VÌa de los Poblados,448105446476272.00,446007679894126.00,31,-1.2231639904149,4.0782976805838
6337,PUNTOS DE MEDIDA URBANOS,57006,Av. LogroÒo  - Bureta-Briones,44796631721779.00,450415338918709.00,31,-4.7779841947743,-1.0513316774839
9993,PUNTOS DE MEDIDA URBANOS,57013,Luis de la Mata - Galatea-Av LogroÒo,447816369807941.00,448189330763076.00,31,5.7637565886070,-1.5915401437361
3832,PUNTOS DE MEDIDA URBANOS,57015,C/. Alcal· - Jaca-A-2,447789588553971.00,448406099988878.00,31,-7.9591951802427,2.2185679835767
7130,PUNTOS DE MEDIDA M-30,PM13211,PM13211,448183918184082.00,442895196017651.00,31,-4.7972219611955,-1.3842981820582
6730,PUNTOS DE MEDIDA M-30,PM20472,PM20472,447729019176702.00,444214846015238.00,31,6.7019849319489,1.5971001269623
6731,PUNTOS DE MEDIDA M-30,PM20473,PM20473,44772910590206.00,444204105965312.00,31,-2.5574858004167,-7.9690567988592
3762,PUNTOS DE MEDIDA M-30,PM41262,PM41262,447049661298282.00,441515607653078.00,31,-1.2265701128869,4.0415735551326
7030,PUNTOS DE MEDIDA URBANOS,1303, Pl. ColÛn  (Delante G. 7) -  Pl. ColÛn  (Delante G. 7),447533749019571.00,441521166014823.00,31,1.3864034208366,-4.5393532168746
7032,PUNTOS DE MEDIDA URBANOS,1304, Pl. ColÛn (giro izq. a Genova) (Antes Gr. 10) -  Pl. ColÛn (giro izq. a Genova) (Antes Gr. 10),447539123644862.00,441573133836507.00,31,-4.5243720027728,9.5667549705863
6781,PUNTOS DE MEDIDA M-30,PM32051,PM32051,447651971417833.00,437404607087057.00,31,5.4077713284638,-1.1565080113438
6782,PUNTOS DE MEDIDA M-30,PM32351,PM32351,447878309497055.00,436941154051674.00,31,2.2212957988291,5.4907419401446
3761,PUNTOS DE MEDIDA M-30,PM41261,PM41261,447050978837708.00,441509872128854.00,31,-7.8238794489621,2.1345791465867
3902,PUNTOS DE MEDIDA URBANOS,2059,Av. Mediterraneo E-O - Abtao-Juan Urbieta,447337305364351.00,442883894989828.00,31,3.9987304105781,3.7198364902387
3903,PUNTOS DE MEDIDA URBANOS,2060, Dr. Esquerdo N-S - Cavanilles-Valderribas (Giro Izq.),447295831740805.00,443011667885628.00,31,8.8143146576017,2.8944632844957
3879,PUNTOS DE MEDIDA URBANOS,2033,Estrella Polar E-O - Pez Austral-Astros(Giro Izqda),447380146099628.00,443547255683815.00,31,2.3141506024721,-5.0544793569351
3898,PUNTOS DE MEDIDA URBANOS,2054,Comercio S-N - Av. Ciudad Barcelona-Tellez,447298605258704.00,442296127724433.00,31,-1.8900920127469,4.1757096999535
3900,PUNTOS DE MEDIDA URBANOS,2056,Cavanilles E-O - Narciso Serra-Pl. Mariano Cavia,447333816860501.00,442609347594878.00,31,3.1147168561738,6.7420246231365
3901,PUNTOS DE MEDIDA URBANOS,2057,Menendez Pelayo S-N - Valderribas-Pl. Mariano Cavia,447330039235734.00,442456117548813.00,31,-6.5762843402517,1.4715629645680
3905,PUNTOS DE MEDIDA URBANOS,2062,Dr. Esquerdo N-S - Pl. Conde Casal-Cavanilles,447313605260081.00,443129283579036.00,31,-9.0550405011052,2.4494119547504
3906,PUNTOS DE MEDIDA URBANOS,2063, Garibay E-O - Adelfas- Dr. Esquerdo,447303103735143.00,443099068197091.00,31,2.1074058541915,4.5996126944266
3433,PUNTOS DE MEDIDA URBANOS,2064,Dr. Esquerdo S-N - Valderribas-Garibay,447298097258804.00,443035773015359.00,31,-1.7165363705463,-5.5534314948102
3907,PUNTOS DE MEDIDA URBANOS,2065,Cavanilles O-E - Sanchez Barcaiztegui-Dr. Esquerdo,447309338156415.00,442991919353404.00,31,-4.8222281526563,-1.1620521733089
3944,PUNTOS DE MEDIDA URBANOS,5016,Serrano. 84 N-S - Padilla-Jose Ortega y Gasset,447607153350446.00,4418505922609.00,31,-8.7006942171313,-2.8497055953097
3697,PUNTOS DE MEDIDA URBANOS,5020,Alcala E-O - Lagasca-Pl. Independencia,447487266768075.00,441903304246488.00,31,2.5092198366838,5.5247332348621
3947,PUNTOS DE MEDIDA URBANOS,5021,Alfonso XII S-N - Montalban-Pl. Independencia,447457418841921.00,441673232880749.00,31,-8.7245515273132,2.8576963412910
3460,PUNTOS DE MEDIDA URBANOS,4004,Alfonso XIII. 51 N-S - Alhelies-Ramon y Cajal,44784632112634.00,443521609607262.00,31,-4.7600368259504,-1.0733793811265
3461,PUNTOS DE MEDIDA URBANOS,4005,Ramon y Cajal. 69 O-E - Gabriel Galan-Alfonso XIII,447839228793905.00,443430811089608.00,31,-7.5112604426586,-2.0709189091655
3952,PUNTOS DE MEDIDA URBANOS,6004,Principe Vergara. 131 N-S - Lopez Hoyos - Gomez Ortega,447734231602493.00,442558288109023.00,31,4.3361624341664,-1.0490317873240
3953,PUNTOS DE MEDIDA URBANOS,6005,Lopez Hoyos. 74 E-O - Gomez Ortega-Principe Vergara,447724142642922.00,442658956716822.00,31,3.5864946917254,1.0688758312479
7126,PUNTOS DE MEDIDA M-30,PM20854,PM20854,447399745774539.00,444006362125591.00,31,-1.3895126137174,3.2259874947393
5864,PUNTOS DE MEDIDA URBANOS,41403,C/. Santiago AliÛ - Santiago AliÛ-Av. Albufera,447138098902028.00,44534528074432.00,31,1.8058490455435,4.1762669450367
5865,PUNTOS DE MEDIDA URBANOS,41404,C/. Fuengirola - Av. Albufera-Benalm·dena,44710661185273.00,445885180365267.00,31,6.6622651202832,-2.0439061380185
5866,PUNTOS DE MEDIDA URBANOS,41405,Av. Albufera - TranvÌa de Arganda- Bruno Ab˙ndez,447076668178531.00,446429921520229.00,31,-1.6073011261805,-3.5182635395697
3593,PUNTOS DE MEDIDA URBANOS,44016,Alcal·  - Vicente Espinel-Hermanos GarcÌa Noblejas,447668946073163.00,445868173282427.00,31,-3.8315770935121,-8.7238670655960
5943,PUNTOS DE MEDIDA URBANOS,44401,C/. Miguel Yuste  - Miguel Yuste-Alcal·,447710227821742.00,447060480899221.00,31,7.2718698423189,2.3003596756535
3528,PUNTOS DE MEDIDA URBANOS,44402,C/. Tumaco - Tumaco-Tampico,447755875581119.00,446224754368208.00,31,-6.5710631012617,1.8540713490497
6251,PUNTOS DE MEDIDA URBANOS,55037,C/. Silvano - M-40-Haendel,447950072084004.00,447183985660262.00,31,-1.8315080359214,4.0369263612539
3660,PUNTOS DE MEDIDA URBANOS,56006,C/. Mar Caspio - Mar de las Antillas-Felipe Herranz,448072733429303.00,445184142307978.00,31,-1.0040240604093,3.3376445755969
9845,PUNTOS DE MEDIDA URBANOS,56009,Av. San Luis - Julio D·nvila-Ctra. Acceso EstaciÛn de Hortaleza,44804869388802.00,444192395034934.00,31,-1.1002763310633,-2.3977129776687
6322,PUNTOS DE MEDIDA URBANOS,56042,C/. Santa Virgilia - Santa Virgilia-Gregorio S·nchez Herr·ez,448103854532825.00,445842614952601.00,31,-5.2088472740055,-1.5048622083172
6927,PUNTOS DE MEDIDA URBANOS,57012,Av. LogroÒo  - Pajarones-TimÛn,448079751317277.00,450742356540968.00,31,1.6868356549520,5.6011991106003
6361,PUNTOS DE MEDIDA URBANOS,59007,C/. Virgen de la AlegrÌa - Virgen de la AlegrÌa- Pl. JosÈ Ban˙s,44763300035791.00,444411444529796.00,31,-2.8406222470604,6.2850753900526
6365,PUNTOS DE MEDIDA URBANOS,59011,C/. Virgen del Sagrario - Virgen de Lluc-JosÈ del Hierro,447653474539849.00,445061274255774.00,31,6.9170292572387,1.6499969357132
6498,PUNTOS DE MEDIDA URBANOS,65026,Fuente Carrantona S-N Carril Giro Izq. - M23-Av. Daroca,44742693140523.00,44691876257547.00,31,4.1652806487233,-3.5746728804698
3811,PUNTOS DE MEDIDA URBANOS,65028,IncorporaciÛn de O¬¥Donnell (M-23) a Fuente Carrantona O-E - M-23- Fuente Carrantona ,447416056371247.00,446716624716158.00,31,4.5780929306293,-1.1175519140982
6440,PUNTOS DE MEDIDA URBANOS,65029,C/. Luis Hoyos Sainz  - Pico Artilleros-Fuente Carrantona,447297495069206.00,446158675297443.00,31,-4.9395587199980,-1.1402651918191
6453,PUNTOS DE MEDIDA URBANOS,67020,C/. Arroyo Media Legua - Acceso O¬¥Donnell,44741263935119.00,444777008233054.00,31,-3.5812198795582,7.8337598079828
6463,PUNTOS DE MEDIDA URBANOS,67023,Av. Doctor GarcÌa Tapia - Fondo saco Av. Doctor GarcÌa Tapia-Arroyo de la Media Legua,447393006193658.00,444663865006739.00,31,1.2380333487823,2.7624506465005
6126,PUNTOS DE MEDIDA URBANOS,67401,Camino Vinateros  - M-30-Manuel Machado,447376232015078.00,444126931295725.00,31,-1.6109503120929,4.1633887329704
6127,PUNTOS DE MEDIDA URBANOS,67402,C/. Alcalde Luis Marichalar - Corregidor Diego Valderr·bano-Primavera de Praga,447383938397576.00,444246208809745.00,31,7.2038455983977,-2.2798996677471
3711,PUNTOS DE MEDIDA URBANOS,71019,C/. Miguel Yuste - Albasanz-Juli·n Camarillo,447665638435226.00,447211326283522.00,31,4.2560784742853,4.8740361585007
6521,PUNTOS DE MEDIDA URBANOS,71022,C/. Emilio MuÒÛz - Castillo de UclÈs-Miguel Yuste,447634210577957.00,447253867694962.00,31,8.2853557416477,-2.2915305503983
3432,PUNTOS DE MEDIDA URBANOS,79007,Acceso A-1 - A-1-Av. Niceto Alcal· Zamora,448375819919393.00,444177549573222.00,31,1.0985350470335,-2.9299536905054
6607,PUNTOS DE MEDIDA URBANOS,79008,Av. Francisco Pi y Margall - Princesa de …boli-PrÌncipe Carlos,448227606247862.00,444775735893397.00,31,5.9041891172132,-1.7010593594863
3519,PUNTOS DE MEDIDA URBANOS,79009,Av. Francisco Pi y Margall - Niceto Alcal· Zamora-PrÌncipe Carlos,448220254692985.00,444996126097696.00,31,4.0991565491907,-9.0577988663164
6608,PUNTOS DE MEDIDA URBANOS,79011,C/. PrÌncipe Carlos - Alcalde Aristizabal ManchÛn-Francisco Pi y Margall,448238776247713.00,44492112925128.00,31,-2.0773907540530,5.2838847142384
6609,PUNTOS DE MEDIDA URBANOS,79012,Av. Francisco Pi y Margall - Vicente Blasco Ib·Òez-Ana de Austria,448264993065746.00,444220119202615.00,31,2.3741748224068,7.4602237288868
6611,PUNTOS DE MEDIDA URBANOS,79014,Av. Francisco Pi y Margall - Ana de Austria-MarÌa de Portugal,44829843108167.00,443822008756072.00,31,7.8282948972229,-1.7531822944534
6614,PUNTOS DE MEDIDA URBANOS,79018,Av. Burgos - Av. Francisco Pi y Margall-Av. Burgos,448318678838581.00,443690311290322.00,31,-1.1332664708529,2.6455376400390
6610,PUNTOS DE MEDIDA URBANOS,79051,Av. Francisco Pi y Margall - Ana de Austria-MarÌa Tudor,448293922197524.00,443847335130968.00,31,-1.0909495114026,2.3913079709244
6626,PUNTOS DE MEDIDA URBANOS,79401,Av. Niceto Alcal· Zamora - Pintor Ignacio Zuloaga-Av. Francisco Pi y Margall,448190649648692.00,445197241112297.00,31,8.7965924546883,2.8945865147286
5206,PUNTOS DE MEDIDA URBANOS,82006,C/. Real Arganda - Serrania de Ronda-Gavia Seca,447028303675144.00,447446290677721.00,31,-6.6689902732320,1.8866320288241
5208,PUNTOS DE MEDIDA URBANOS,82008,C/. Pico de la Sierva - Sierra Gor-Montes Barbanza,447023187490985.00,447586834198527.00,31,-8.0311102234105,2.6068746302483
5210,PUNTOS DE MEDIDA URBANOS,82415,C/. Real de Arganda - Sierra Gor-Torcal,447026610726486.00,447696203627634.00,31,6.1535755267116,-1.7951353662020
5211,PUNTOS DE MEDIDA URBANOS,82416,C/. Puentelarra - Puentelarra- Santa Eugenia,447080718022206.00,448691315411225.00,31,4.1546894509846,-6.2428857429105
6594,PUNTOS DE MEDIDA URBANOS,79050,Av. Santo Domingo de la Calzada - Sauceda-Valcarlos,448411652702124.00,443844532769772.00,31,1.1924243322851,-3.1544910709771
6505,PUNTOS DE MEDIDA URBANOS,83403,Av. Democracia - A-3-Av. Albufera,447144909512716.00,447307735298079.00,31,4.3529928424279,-1.2897915621262
6506,PUNTOS DE MEDIDA URBANOS,83404,Av. Democracia - Acceso A-3 desde Vicalvaro,447147812979179.00,447312022470125.00,31,-4.1131118234364,-9.1373320159688
5359,PUNTOS DE MEDIDA URBANOS,88003,C/. PeÒagrande de Bragamonte - Puentedey-Av. Ensanche de Vallecas,446898718484816.00,448307767946824.00,31,1.7344241720109,-5.7024643249370
5360,PUNTOS DE MEDIDA URBANOS,88004,Av. Ensanche de Vallecas Via de servicio - P.P.-Av. EntrepeÒas,446900888056785.00,448473050605308.00,31,-4.3381148227821,1.0670585936569
5363,PUNTOS DE MEDIDA URBANOS,88007,Av. Suertes - Av. EntrepeÒas-PeÒaranda de Bracamonte,446929304796767.00,448601667608579.00,31,2.8038073871164,8.7803518231433
3830,PUNTOS DE MEDIDA URBANOS,25015,ANT. LOPEZ S-N(SEBASTIA GOMEZ-GTA.CADIZ),447115468477935.00,440867955239196.00,31,8.4792215864013,2.7667840673663
9834,PUNTOS DE MEDIDA URBANOS,83007,Ctra. Vicalvaro a Vallecas - Av. Albufera-Bruno Abundez,447066750698493.00,446707967230754.00,31,-1.9400994509575,-4.2346009741770
5382,PUNTOS DE MEDIDA URBANOS,89010,C/. Jose Gutierrez - Av. Ensanche Vallecas-Av. Suertes,446893118961239.00,449017230818099.00,31,1.1127106852647,-3.7374306969433
4745,PUNTOS DE MEDIDA URBANOS,24008,CUART POBLET O-E(CULLERA-ALHAMBRA),447251967275741.00,436915162458912.00,31,2.6233141211341,-7.9412544279035
4746,PUNTOS DE MEDIDA URBANOS,24009,ALHAMBRA N-S(CULLERA-GTA. LOS CARMENES),447226462084865.00,436978110402621.00,31,-2.5155473710980,6.1704669640418
4754,PUNTOS DE MEDIDA URBANOS,24020,V.CARPETANA E-O(MOCHUELO-LOPEZ MEZQ),447211431664818.00,437455373067297.00,31,-3.6959924869620,-2.0742255995020
4755,PUNTOS DE MEDIDA URBANOS,24021,DUQ.PARCENT N-S(CUART POB.-DUQ.PARC,447214471268281.00,436667143438736.00,31,-3.7530271820227,-3.8625086602658
4756,PUNTOS DE MEDIDA URBANOS,24022, MOCHUELO S-N(E.BARRIOS-PZA.RICLA),447220148774976.00,43753458132402.00,31,-4.0854090939875,7.1938896514869
4757,PUNTOS DE MEDIDA URBANOS,24024,LAGUNA S-N(CAMICHI-V.CARPETANA),447169041277279.00,437116424965847.00,31,-4.5526898234268,-1.0683479923120
4786,PUNTOS DE MEDIDA URBANOS,25020,ANTONIO LOPEZ N-S(VADO-CNO. PERALES),447094798597663.00,441026496569601.00,31,1.6268491995714,-5.2538210110625
4823,PUNTOS DE MEDIDA URBANOS,26013,AV. ANDALUCIA S-N(UNANIMIDAD-M40),446839554316683.00,441218219294201.00,31,-1.1406650604816,-2.6450463717332
3569,PUNTOS DE MEDIDA URBANOS,26014,ACC. M40 A AV.ANDALUCIA E-O,446867555287827.00,441265239642352.00,31,2.1738240122049,5.4517483500780
4824,PUNTOS DE MEDIDA URBANOS,26015,ACC. M40 A AV.ANDALUCIA O-E,446863317286334.00,441073286818345.00,31,6.0329137814961,1.6874108823237
4825,PUNTOS DE MEDIDA URBANOS,26016,AV. ANDALUCIA S-N(CONIFERAS-AV.ROSALES),446898188917185.00,441180738866693.00,31,2.5925201302158,6.4274117587161
4826,PUNTOS DE MEDIDA URBANOS,26017,AV. ANDALUCIA N-S(AV.ROSALES-CONIFERAS),446904653239378.00,441163817070554.00,31,-4.0379862125858,5.3098414198621
4827,PUNTOS DE MEDIDA URBANOS,26018,AV.ROSALES E-O(AV.ANDALUCIA-E.BARREIROS),446914844254346.00,441131446029957.00,31,-2.0606906607713,4.6990457934516
4846,PUNTOS DE MEDIDA URBANOS,27029,P? FERROV S-N(DOMINGO PARRAGA-JOSE PINO),446620589109515.00,439144333940729.00,31,-8.8210791428288,2.8824247785266
4847,PUNTOS DE MEDIDA URBANOS,27030,P?FERROVIARIOSS-N(JOSE PINO-ENCAR PINO),44665707846813.00,439257830737514.00,31,3.9266556969689,4.8621662951437
4848,PUNTOS DE MEDIDA URBANOS,27031,P?FERROVIARIOS N-S(SULFATO-ENCARN PINO),446675083196615.00,439317306673385.00,31,9.1169268357645,-2.9862888468048
4854,PUNTOS DE MEDIDA URBANOS,27037,SAN JENARO S-N (OXIGENO-P? TALLERES) D2,446673638114879.00,440408507874433.00,31,1.0101982077403,3.3280606373068
4855,PUNTOS DE MEDIDA URBANOS,27038,SAN JENARO S-N (OXIGENO-P? TALLERES),446673472137963.00,440405778149668.00,31,6.7872595795127,1.4793385616546
4893,PUNTOS DE MEDIDA URBANOS,37002,YEBENES O-E,447170261607763.00,436320174902718.00,31,5.7190803555134,-1.6806892126932
4895,PUNTOS DE MEDIDA URBANOS,37008,GRAL.FANJUL N-S(MAQUEDA-POBLADOS),447111418531682.00,435525250359222.00,31,-5.0751650654224,-1.1948989006952
4922,PUNTOS DE MEDIDA URBANOS,38001,AVDA.POBLADOS O-E(C.GUZMAN-E.MONTIJO),447006911098292.00,436187987527663.00,31,-6.0563126911716,1.8289107914802
4923,PUNTOS DE MEDIDA URBANOS,38002,AV.POBLADOS E-O(CARAB.BAJO-E.MONTIJO),446990743794478.00,436666068433144.00,31,1.7393637477185,-3.9378567407957
4955,PUNTOS DE MEDIDA URBANOS,38037,AV. POBLADOS E-S(GIRO A C.TOLEDO),446972916608637.00,439004680459692.00,31,-1.4800890311772,4.7862662871520
4964,PUNTOS DE MEDIDA URBANOS,39010,CNO V.VILLAV S-N(P.PARC-POBLADOS),446956705990405.00,439782622713918.00,31,9.8545604741227,-3.2407432351384
4965,PUNTOS DE MEDIDA URBANOS,39011,POBLADOS O-E(C? V.VILLAV-J.FRANCES),44694442181191.00,440187113283821.00,31,-3.8647656992235,3.3372052805949
4966,PUNTOS DE MEDIDA URBANOS,39012,EXPROPIACION S-N(GRAN AV.-AV.POBLA),44693798655581.00,440299070998463.00,31,-2.5806374824518,7.9224288929196
4967,PUNTOS DE MEDIDA URBANOS,39013,TOLOSA LATOUR N-S(CRISTO VEGA-POBLADOS),446952193409046.00,440427993055306.00,31,7.1451701890793,-1.5449953399531
4968,PUNTOS DE MEDIDA URBANOS,39014,AV.POBLADOS E-O(ORCASUR 1-TOLOSA LATOUR),446938882586863.00,440598645468273.00,31,-3.1922067682534,9.5722103833578
4972,PUNTOS DE MEDIDA URBANOS,39019,AV. POBLADOS E-O(ANDALUCIA-E.BARREIROS),446935934216581.00,441107038540156.00,31,-5.1300754699033,-1.2262274728508
3631,PUNTOS DE MEDIDA URBANOS,39053,PIEDRABUENA E-O(TOMELLOSO-SANTUARIO),447072844369434.00,440770221021888.00,31,4.8153136458947,-1.3785883734946
5036,PUNTOS DE MEDIDA URBANOS,49002,(MIC)G.RICARDOS O-E(BLASON-M.GRANDES)GIR,44709055754954.00,437322439407146.00,31,2.1135088643180,6.5654945955913
5089,PUNTOS DE MEDIDA URBANOS,50023,MERCEDES DOMINGO N-S,447098887010758.00,438843824119106.00,31,-1.3171955054441,3.0220854887307
5093,PUNTOS DE MEDIDA URBANOS,50027, DR. ESPINA N-S,447119014913798.00,438206500159031.00,31,-4.4297023791772,-1.2684584713246
5136,PUNTOS DE MEDIDA URBANOS,58005,AV.ABRANTES N-S(PELICANO-ARGUESO),447064643160922.00,438455189524968.00,31,6.0152704341860,-1.7997236620468
5138,PUNTOS DE MEDIDA URBANOS,58007,AV. ABRANTES N-S(BRAGANZA-PORTALEGRE),447088886435394.00,438758953884991.00,31,-4.8889231006600,1.0479374443583
5139,PUNTOS DE MEDIDA URBANOS,58008,PORTALEGRE O-E(OPORTO-ABRANTES),447091686248877.00,438672506649513.00,31,-8.4932642748664,1.8233928356390
3769,PUNTOS DE MEDIDA URBANOS,58016,AV. ABRANTES E-O(PL. VULCANO-BESOLLA),44701341228253.00,43794912050317.00,31,3.6823571085120,-4.6201795650732
6649,PUNTOS DE MEDIDA M-30,PM10242,PM10242,4479604788042.00,443562461303858.00,31,1.6179738392824,5.2705119270521
6650,PUNTOS DE MEDIDA M-30,PM10341,PM10341,44786206290326.00,443857691533468.00,31,8.4150016234039,-2.7504804312213
6651,PUNTOS DE MEDIDA M-30,PM10342,PM10342,447861397810544.00,443831807715981.00,31,5.0187202332523,1.2360818085503
6652,PUNTOS DE MEDIDA M-30,PM10343,PM10343,447861948806014.00,443850657410969.00,31,-7.5134463222569,-1.6296046632202
1003,PUNTOS DE MEDIDA M-30,05FT66PM01,05FT66PM01,447338749141261.00,436739489471744.00,31,1.7980990757348,-5.6701245682146
4070,PUNTOS DE MEDIDA URBANOS,10026, Fernan Gonzalez N-S - Duque Sesto-O¬¥Donnell,447498565615538.00,442900889832732.00,31,-1.4913960869595,3.4455768474494
4071,PUNTOS DE MEDIDA URBANOS,10027,Av. Menendez Pelayo N-S - Alcala-O¬¥Donnell,447500783030214.00,442415864900319.00,31,5.2308214571719,1.1330603495859
